醫事機構代碼,醫事機構名稱,縣市別,區管別,地址,更新日期,醫事機構層級,LTBI,緯度,經度
3539140187,陳銘森診所,3914,4,雲林縣東勢鄉東南村東劫西路60號,2004/12/25,4,Y,,
3539161668,全民診所,3916,4,雲林縣台西鄉海囗村中山路３９１號,2010/6/28 ,4,Y,23.7008235,120.1917007
3505340226,陳俊達小兒科診所,0534,4,臺南市中西區中山路19、21、21-1號1樓,2013/5/20 ,4,Y,22.9932364,120.2057486
0101090517,台北市立聯合醫院,0109,1,台北市大同區鄭州路１４５號（代表）,2007/5/16 ,2,Y,25.0511327,121.5094194
0102020011,高雄市立聯合醫院：美術館院區,0729,5,高雄市鼓山區中華一路９７６號,2010/7/20 ,2,Y,22.654927,120.291194
0102070020,高雄市立大同醫院高醫經營,0734,5,高雄市前金區中華三路６８號,2016/1/25 ,2,Y,22.6269695,120.2972463
0102080017,高雄市立民生醫院,0735,5,高雄市苓雅區凱旋二路１３４號,2010/7/19 ,3,Y,22.626625,120.3235881
0111070010,衛生福利部基隆醫院,1107,1,基隆市信義區信二路２６８號,2006/6/7  ,2,Y,25.1302624,121.7481291
0117030010,衛生福利部台中醫院,0324,3,台中市西區三民路一段１９９號,2016/1/25 ,2,Y,24.1406262,120.6762712
0121050011,衛生福利部台南醫院,0534,4,台南市中區中山路１２５號,2009/5/1  ,2,Y,22.9960707,120.2088778
0122020517,衛生福利部嘉義醫院,2201,4,嘉義市西區福全里北港路３１２號,2007/5/7  ,3,Y,23.4810044,120.4283733
0131020016,新北市立聯合醫院,3102,1,新北市三重市中山路２號,2010/12/29,2,Y,25.0062213,121.4797926
0131060010,衛生福利部樂生療養院,3106,1,新北市新莊市中正路７９４號,2010/12/27,3,Y,25.022246,121.409079
0131060029,衛生福利部台北醫院,3106,1,新北市新莊市思源路１２７號１樓,2010/12/27,2,Y,25.0429644,121.4595886
0132010014,衛生福利部桃園醫院,3201,2,桃園縣桃園巿中山路１４９２號,2013/5/20 ,2,Y,24.9777031,121.2691911
0132110519,衛生福利部桃園醫院新屋分院,3211,2,桃園縣新屋鄉新福二路６號,2007/5/7  ,3,Y,24.969636,121.107013
0135010016,衛生福利部苗栗醫院,3501,2,苗栗縣苗栗市為公路７４７號,2007/5/7  ,2,Y,24.5755097,120.8410317
0136010010,衛生福利部豐原醫院,0301,3,台中縣豐原市安康路１００號,2007/5/16 ,2,Y,24.2428051,120.7252423
0137170515,衛生福利部彰化醫院,3717,3,彰化縣彰化市中山路二段１６０號,2007/5/16 ,2,Y,24.0683359,120.541561
0138010027,衛生福利部南投醫院,3801,3,南投縣南投市康壽里復興路４７８號,2016/2/23 ,3,Y,23.9140079,120.6849431
0140010028,衛生福利部朴子醫院,4001,4,嘉義縣朴子市應菜埔４２－５０號,2008/7/17 ,3,Y,23.4644524,120.2346391
0141270019,衛生福利部胸腔病院,0527,4,台南市仁德鄉中山路864號,2011/4/18 ,3,Y,22.9737872,120.243807
0142030019,衛生福利部旗山醫院,0703,5,高雄縣旗山鎮大德里中學路６０號,2007/5/7  ,3,Y,22.8807955,120.483264
0143010011,衛生福利部屏東醫院,4301,5,屏東縣屏東市自由路２７０號,2007/5/7  ,2,Y,22.6733243,120.4955525
0143040019,衛生福利部恆春旅遊醫院,4304,5,屏東縣恆春鎮山腳里恆南路１８８號,2008/5/30 ,3,Y,21.9992018,120.7448456
0144010015,衛生福利部澎湖醫院,4401,5,澎湖縣馬公市啟明里中正路１０號,2010/7/20 ,3,Y,23.5643306,119.5657456
0145010019,衛生福利部花蓮醫院,4501,6,花蓮巿明禮路４號,2007/11/23,3,Y,23.982389,121.6085136
0145030020,衛生福利部玉里醫院,4503,6,花蓮縣玉里鎮新興街９５號,2006/9/20 ,3,Y,23.3385259,121.3128234
0145080011,衛生福利部花蓮醫院豐濱原住民分院,4508,6,花蓮縣豐濱鄉豐濱村光豐路４１號,2007/3/16 ,3,Y,23.6018685,121.521333
0146010013,衛生福利部台東醫院,4601,6,台東市五權街１號,2011/2/1  ,3,Y,22.7572027,121.1498616
0190030516,衛生福利部金門醫院,9003,1,金門縣金湖鎮復興路２號,2016/1/25 ,3,Y,24.4413311,118.4189511
0221010019,台南市立醫院,0532,4,台南市東區崇德路６７０號,2006/3/16 ,2,Y,22.9687059,120.2268128
0291010010,連江縣立醫院,9101,1,連江縣南竿鄉復興村１６４號,2006/3/16 ,3,Y,,
0412040012,國立臺灣大學醫學院附設醫院新竹分院,1204,2,新竹市經國路一段４４２巷２５號,2016/1/25 ,2,Y,24.816467,120.9795262
0421040011,成功大學醫學院附設醫院,0535,4,台南市勝利路１３８號,2007/5/16 ,1,Y,23.0021803,120.2189867
0431270012,國立臺灣大學醫學院附設醫院金山分院,3127,2,新北市金山鄉五湖村南勢51號,2010/12/27,3,Y,25.219673,121.628174
0433030016,國立台灣大學醫學院附設醫院竹東分院,3303,2,新竹縣竹東鎮至善路５２號,2011/8/1  ,3,Y,24.7189239,121.093259
0434010518,國立陽明大學附設醫院,3401,1,宜蘭縣宜蘭市新民路152號,2016/1/25 ,2,Y,24.7577719,121.754158
0502030015,國軍左營醫院附設民診處,0730,5,高雄市左營區合群里軍校路５５３號,2010/7/20 ,2,Y,22.7012121,120.290507
0502080015,國軍高雄總醫院附設民診處,0735,5,高雄市苓雅區建軍路５號,2010/7/20 ,2,Y,22.6259888,120.3419285
0517050010,國軍台中總醫院中清分院(八一六),0326,3,台中市北區忠明路５００號,2009/5/8  ,3,Y,24.1621957,120.6721757
0532090029,國軍桃園總醫院附設民診處,3209,2,桃園縣龍潭鄉中興村中興路１６８號,2006/9/19 ,2,Y,24.8773785,121.2348665
0536190011,國軍台中總醫院附設民診處,0319,3,台中縣太平市光華村中山路二段３４８號,2007/12/3 ,2,Y,,
0543010019,國軍高雄總醫院屏東分院民診處,4301,5,屏東縣屏東市大湖路５８巷２２號,2006/9/19 ,3,Y,22.6336378,120.4875275
0544010031,三軍總醫院澎湖分院,4401,5,澎湖縣馬公市前寮里９０號,2016/1/25 ,3,Y,23.5552312,119.5834662
0545040515,國軍花蓮總醫院附設民診處,4501,6,花蓮市進豐街１００號,2007/9/14 ,2,Y,23.9875956,121.6066154
0602030026,退輔會高雄榮民總醫院,0730,5,高雄市左營區大中一路３８６號,2016/8/16 ,1,Y,22.6797767,120.3223911
0617060018,退輔會台中榮民總醫院,0327,3,台中市西屯區中港路三段１６０號,2007/5/16 ,1,Y,24.1854343,120.6138722
0622020017,退輔會嘉義榮民醫院,2202,4,嘉義市西區劉厝里拔子林路６０號,2016/1/25 ,2,Y,,
0632010014,台北榮民總醫院桃園分院,3201,2,桃園縣桃園市成功路三段１００號,2012/3/7  ,2,Y,25.0037756,121.3253069
0634030014,臺北榮民總醫院蘇澳分院,3403,1,宜蘭縣蘇澳鎮濱海路１段３０１號,2011/3/11 ,3,Y,24.612995,121.849615
0634070018,臺北榮民總醫院員山分院,3407,1,宜蘭縣員山鄉內城村榮光路３８６號,2011/3/11 ,3,Y,24.7219914,121.6872493
0638020014,退輔會埔里榮民醫院,3802,3,南投縣埔里鎮蜈蚣里榮光路１號,2012/10/3 ,3,Y,23.9758344,120.995785
0640140012,退輔會灣橋榮民醫院,4014,4,嘉義縣竹崎鄉灣橋村石麻園３８號,2007/5/7  ,3,Y,23.4876922,120.5065154
0641310018,高雄榮民總醫院臺南分院,0531,4,台南縣永康市復興路４２７號,2016/8/16 ,3,Y,22.9972963,120.2402196
0643130018,高雄榮民總醫院屏東分院,4313,5,屏東縣內埔鄉龍潭村昭勝路安平一巷一號,2011/7/26 ,3,Y,22.6745796,120.5988693
0645020015,臺北榮民總醫院鳳林分院,4502,6,花蓮縣鳳林鎮鳳信里中正路一段２號,2014/10/7 ,3,Y,23.7266258,121.439971
0645030011,臺北榮民總醫院玉里分院,4503,6,花蓮縣玉里鎮泰昌里新興街９１號,2014/10/7 ,3,Y,23.3392092,121.3120416
0646010013,臺北榮民總醫院臺東分院,4601,6,臺東縣台東市更生路1000號,2014/2/17 ,3,Y,22.7723657,121.1318608
0717070516,台灣台中監獄附設培德醫院,0328,3,台中市南屯區培德路9號,2007/6/22 ,3,Y,24.1423177,120.5984766
0902080013,阮綜合醫院,0735,5,高雄市苓雅區鼓中里成功一路１６２號,2010/7/20 ,2,Y,22.6153314,120.2976601
0917070029,林新醫院,0328,3,台中巿南屯區惠中路３段３６號,2016/1/25 ,2,Y,24.1490126,120.6403479
0932020025,天成醫療社團法人天晟醫院,3202,2,桃園縣中壢巿延平路一五五號,2011/8/5  ,2,Y,24.9626431,121.2290242
0935010012,梓榮醫療社團法人弘大醫院,3501,2,苗栗縣苗栗市維新里新東街１２５號,2015/11/26,3,Y,24.5515087,120.8209267
0935020027,李綜合醫療社團法人苑裡李綜合醫院,3502,2,苗栗市苑裡鎮苑南里１鄰和平路１６８號,2009/10/13,3,Y,24.4419049,120.652647
0936050029,光田醫療社團法人光田綜合醫院,0305,3,台中縣沙鹿鎮興安里沙田路１１７號,2016/1/25 ,2,Y,24.2354394,120.5588678
0936060016,童綜合醫療社團法人童綜合醫院,0306,3,台中縣梧棲鎮大莊里中棲路１段６９９號,2008/4/18 ,2,Y,24.2475913,120.5450781
0937010019,秀傳醫療社團法人秀傳紀念醫院,3701,3,彰化縣彰化市南瑤里中山路一段５４２號,2016/1/25 ,2,Y,24.0647705,120.5374429
0937030012,道周醫療社團法人道周醫院,3703,3,彰化縣和美鎮面前里和光路１８０號,2008/11/18,3,Y,24.1105664,120.4919421
0937050014,伍倫醫療社團法人員榮綜合醫院,3705,3,彰化縣員林市中正路２０１號,2008/4/18 ,3,Y,23.9534113,120.5749134
0938030016,佑民醫療社團法人佑民醫院,3803,3,南投縣草屯鎮山腳里太平路一段２００號,2009/1/7  ,3,Y,23.9606022,120.6817657
0941010019,新興醫療社團法人新興醫院,0501,4,台南縣新營市中興路10號,2012/5/3  ,3,Y,23.303633,120.316843
0942020019,高雄市立岡山醫院(委託秀傳醫療社團法人經營),0702,5,高雄縣岡山鎮壽山路12號,2016/6/8  ,3,Y,,
0943010017,寶建醫療社團法人寶建醫院,4301,5,屏東縣屏東市空翔里中山路１２３號,2008/4/18 ,2,Y,22.6814439,120.4843319
0943020013,安泰醫療社團法人潮州安泰醫院,4302,5,屏東縣潮州鎮三星里四維路１６２號,2010/7/2  ,3,Y,22.5540367,120.5469551
0943030019,安泰醫療社團法人安泰醫院,4303,5,屏東縣東港鎮興東里中正路一段２１０號,2007/10/8 ,2,Y,22.4740818,120.4592153
0943040015,南門醫療社團法人南門醫院,4304,5,屏東縣恆春鎮南門路10號,2016/2/4  ,3,Y,22.0008126,120.7453713
0943160012,枋寮醫療社團法人枋寮醫院,4316,5,屏東縣枋寮鄉安樂村中山路１３９號,2009/4/28 ,3,Y,22.3633814,120.5979648
1102110011,高雄市立小港醫院,0738,5,高雄市小港區山明路482號,2016/1/25 ,2,Y,22.5674103,120.3633173
1105040016,新樓麻豆分院,0504,4,台南縣麻豆鎮小埤里苓子林２０號,2006/3/16 ,2,Y,23.1802283,120.232868
1105050012,奇美財團法人佳里奇美醫院,0505,4,台南縣佳里鎮興化里佳里興６０６號,2011/11/25,3,Y,23.1816689,120.1837918
1107120017,義大醫療財團法人義大癌治療醫院,0712,0,高雄市燕巢區角宿里義大路21號,2016/4/1  ,3,Y,22.7641541,120.3616921
1111060015,長庚紀念醫院基隆分院,1106,1,基隆市安樂區麥金路２２２號,2007/5/16 ,2,Y,25.120702,121.72236
1112010519,馬偕紀念醫院新竹分院,1201,2,新竹市東區光復路二段６９０號,2007/5/16 ,2,Y,24.800045,120.9906631
1112010528,國泰綜合醫院新竹分院,1201,2,新竹市東區中華路二段６７８號,2006/9/19 ,3,Y,24.7982349,120.9653132
1117010019,財團法人仁愛綜合醫院,0322,3,台中市中區柳岸里柳川東路三段３６號,2006/5/25 ,3,Y,,
1121010018,新樓醫院,0532,4,台南市東區泉北里東門路一段５７號,2006/3/16 ,2,Y,22.9891837,120.2130783
1122010012,戴德森醫療財團法人嘉義基督教醫院,2201,4,嘉義市忠孝路５３９號,2016/1/25 ,2,Y,23.4994174,120.450168
1122010021,天主教聖馬爾定醫院,2201,4,嘉義市大雅路二段５６５號,          ,2,Y,23.4773947,120.4680192
1131010011,亞東紀念醫院,3101,1,新北市板橋市南雅南路２段２１號,2016/1/25 ,1,Y,24.9972647,121.4527715
1131050515,慈濟醫院台北分院,3105,1,新北市新店市建國路289號,2016/1/25 ,2,Y,24.9860629,121.5356762
1131090019,恩主公醫院,3109,1,新北市三峽鎮復興路３９９號,2010/12/27,2,Y,24.9383074,121.362904
1131100010,馬偕醫院淡水分院,3110,1,新北市淡水鎮民生路４５號,2016/1/25 ,1,Y,25.1389266,121.4618172
1131110516,國泰綜合醫院汐止分院,3111,1,新北市汐止市建成路59巷2號地下3樓至地上9樓,2010/12/27,2,Y,,
1132010024,沙爾德聖保祿修女會醫療財團法人聖保祿醫院,3201,2,桃園縣桃園市建新街１２３號,2013/11/6 ,2,Y,24.9823171,121.312003
1132070011,長庚紀念醫院林口,3207,2,桃園縣龜山鄉復興路５號,2007/5/16 ,1,Y,25.0615916,121.3675283
1132071036,長庚紀念醫院桃園分院,3207,2,桃園縣龜山鄉舊路村東舊路坑２６之８號,2010/1/28 ,3,Y,25.015773,121.367274
1134020019,醫療財團法人羅許基金會羅東博愛醫院,3402,1,宜蘭縣羅東鎮南昌街８１－８３號站前南路61、63號,2016/3/14 ,2,Y,,
1135050020,財團法人為恭紀念醫院,3505,2,苗栗縣頭份鎮東庄里仁愛路１１６,2016/1/25 ,2,Y,24.6875172,120.9083048
1136090519,慈濟綜合醫院台中分院,0309,3,台中縣潭子鄉聚興村豐興路１段６６號,2016/1/25 ,2,Y,24.2033984,120.7210415
1136200015,仁愛綜合醫院,0320,3,台中縣大里市東榮路４８３號,          ,2,Y,24.1092272,120.6805749
1137010024,彰化基督教醫院,3701,3,彰化縣彰化市光南村南校街１３５號,2008/12/29,1,Y,24.0715309,120.5446075
1137020511,彰濱秀傳紀念醫院,3702,3,彰化縣鹿港鎮鹿工路６號,2010/4/21 ,2,Y,24.0781759,120.4110511
1137020520,彰化基督教醫療財團法人鹿港基督教醫院,3702,3,彰化縣鹿港鎮中正路480號,2013/6/17 ,3,Y,24.0607522,120.4375684
1137050019,彰化基督教醫療財團法人員林基督教醫院,3705,3,彰化縣員林市南平里莒光路456號,2016/1/25 ,3,Y,23.9631297,120.5667142
1137080017,彰化基督教醫療財團法人二林基督教醫院,3708,3,彰化縣二林鎮南光里大成路一段５５８號,2013/6/17 ,3,Y,23.8935714,120.3633791
1138020015,埔里基督教醫院,3802,3,南投縣埔里鎮愛蘭里鐵山路１號,          ,2,Y,23.9704493,120.9465243
1139030015,天主教若瑟醫療財團法人若瑟醫院,3903,4,雲林縣虎尾鎮新生路７４號,2014/1/17 ,2,Y,23.7080161,120.4373426
1139040011,彰化基督教醫療財團法人雲林基督教醫院,3904,4,雲林縣西螺鎮新豐里市場南路３７５號,2013/10/1 ,2,Y,23.7807047,120.4413729
1139130010,長庚紀念醫院雲林分院,3913,4,雲林縣麥寮鄉工業路三盛村707號,2014/2/11 ,3,Y,23.7954024,120.2188475
1140010510,長庚紀念醫院嘉義分院,4001,4,嘉義縣朴子市嘉朴路西段6號,2016/1/25 ,2,Y,23.4623035,120.2859553
1140030012,佛教慈濟醫療財團法人大林慈濟醫院,4003,4,嘉義縣大林鎮平林里民生路2號,2014/1/3  ,2,Y,23.596561,120.4571827
1141090512,財團法人奇美醫院柳營分院,0509,4,台南縣柳營鄉太康村２０１號,2008/11/18,2,Y,23.2887316,120.3250313
1141310019,奇美醫院,0531,4,台南縣永康市中華路９０１號,2007/5/16 ,1,Y,23.0209835,120.2220415
1142100017,長庚紀念醫院高雄分院,0710,5,高雄縣鳥松鄉大埤路123號,2007/5/16 ,1,Y,22.6493624,120.3526317
1142120001,義大醫療財團法人義大醫院,0712,5,高雄縣燕巢鄉角宿村義大路1號,2010/5/31 ,2,Y,22.765953,120.364258
3533052240,王伯堅診所,3305,2,新竹縣竹北市光明一路１７０號１－２樓,2015/6/5  ,4,Y,24.830536,121.0163953
1143010012,屏東基督教醫院,4301,5,屏東縣屏東市華山里大連路６０號,2007/5/16 ,2,Y,22.682129,120.502622
1145010010,佛教慈濟綜合醫院,4501,6,花蓮市中央路三段７０７號,2007/5/16 ,1,Y,23.9962048,121.5925472
1145010038,台灣基督教門諾會醫院,4501,6,花蓮巿民權路４４號,2007/5/16 ,2,Y,23.9878102,121.6263725
1146010014,馬偕紀念醫院台東分院,4601,6,台東市長沙街３０３巷１號,2007/5/16 ,2,Y,22.7510439,121.140758
1146010032,台東基督教醫院,4601,6,台東市開封街３５０號,2005/10/27,3,Y,22.7635614,121.1452775
1146030516,慈濟醫院關山分院,4603,6,台東縣關山鎮和平路１２５－５號,2006/9/19 ,3,Y,23.057294,121.1669677
1231030015,天主教耕莘醫療財團法人永和耕莘醫院,3103,1,新北市永和市中興街８０號,2014/2/19 ,3,Y,25.0118746,121.5177337
1231050017,天主教耕莘醫療財團法人耕莘醫院,3105,1,新北市新店市中正路３６２號,2014/2/19 ,2,Y,24.976293,121.5357523
1234020011,天主教羅東聖母醫院,3402,1,宜蘭縣羅東鎮中正南路１６０號,2016/1/25 ,2,Y,24.6718382,121.7715737
1302050014,高雄醫學大學附設中和紀念醫院,0732,5,高雄市三民區十全一路１００號,2010/7/20 ,1,Y,22.6453863,120.3102147
1305370013,臺南市立安南醫院(委託中國醫藥大學興建經營),0537,4,臺南市安南區長和路二段66號,2014/3/14 ,2,Y,23.0648363,120.222761
1307370011,高雄市立旗津醫院(委託財團法人私立高雄醫學大學經營),0737,0,高雄市旗津區旗港路３３號,2014/11/12,3,Y,22.5904375,120.2851625
1317020519,中國醫藥大學附設醫院台中東區分院,0323,3,台中市東區自由路三段二九六號,2008/1/15 ,3,Y,24.1426667,120.6946937
1317040011,中山醫學院附設醫院,0325,3,台中市南區建國北路一段110號,2007/5/16 ,1,Y,24.1219493,120.6513895
1317050017,中國醫藥學院附設醫院,0326,3,台中市北區育德路2號,2007/5/16 ,1,Y,24.1576494,120.6805492
1331040513,衛生福利部雙和醫院,3104,1,新北市中和市力行里中正路２９１號,2016/1/25 ,2,Y,24.9941049,121.4945064
1339060017,中國醫藥學院北港附設醫院,3906,4,雲林縣北港鎮新街里新德路１２３號,2006/9/19 ,2,Y,23.590144,120.307229
1343030018,輔英科技大學附設醫院,4303,5,屏東縣東港鎮興台里中山路５號,2007/5/7  ,2,Y,22.465312,120.453052
1502040021,健仁醫院,0731,5,高雄市楠梓區中陽里楠陽路１３６號,2010/7/20 ,3,Y,22.7237039,120.3291328
1507320015,新高醫院,0732,5,高雄市三民區莊敬路２８８號,2012/11/13,3,Y,22.6499157,120.3182439
1517011112,澄清綜合醫院,0322,3,台中市中區錦花里平等街１３９號,2014/8/6  ,2,Y,24.1429669,120.6823999
3535012315,蕭銘賢診所,3501,0,苗栗縣苗栗市中正路236、238號1樓,2014/12/30,4,Y,24.5644764,120.823985
3535041647,宏仁診所,3504,0,苗栗縣竹南鎮中港里12鄰守法街2-13號1、3、4樓,2015/1/9  ,4,Y,24.6817369,120.8681164
3535061363,後龍診所,3506,2,苗栗縣後龍鎮中山路123號1-3樓,2012/3/7  ,4,Y,24.6159599,120.7885312
3546012269,李惠雄內科診所,4601,0,臺東縣台東市中正路３３４號,2015/5/4  ,4,Y,22.757077,121.1517663
1517051125,臺安醫院雙十分院,0326,3,台中市北區新北里雙十路二段２９號,          ,3,Y,24.15271,120.6886184
1517061032,澄清綜合醫院中港分院,0327,3,台中市西區福安里中港路三段１１８號,2016/1/25 ,2,Y,24.1854293,120.6138873
1517080019,聯安醫院,0329,3,台中市北屯區東山路一段３７號,2005/10/20,3,Y,24.170599,120.6993404
1521031104,郭綜合醫院,0534,4,台南市西區民生路二段２２號９樓,2006/3/16 ,2,Y,22.9947575,120.1986977
1521051160,永和醫院,0534,4,台南市中區府前路一段３０４巷２號,2007/3/15 ,3,Y,22.9903668,120.198881
1522011115,陽明醫院,2201,4,嘉義市東區吳鳳北路252號,2007/4/12 ,3,Y,23.480131,120.4531217
1531010108,蕭中正醫院,3101,1,新北市板橋市南雅南街１５–１號,2010/12/27,3,Y,25.0069668,121.4564931
1531040259,中祥醫院,3104,2,新北市中和市中山路２段１４０號,2010/12/27,3,Y,25.0031944,121.502077
1531041390,怡和醫院,3104,1,新北市中和市連城路４９號１－４樓,2013/10/1 ,3,Y,25.0018899,121.4985247
1532010120,桃新醫院,3201,2,桃園縣桃園市文昌里民族路１３５號,          ,3,Y,24.9924669,121.308665
1532011154,敏盛綜合醫院,3201,2,桃園縣桃園市三民路三段１０６號,2012/6/29 ,2,Y,24.9943035,121.3055212
1532020180,新國民綜合醫院,3202,2,桃園縣中壢市復興路１５２號,2006/7/17 ,3,Y,24.9541537,121.223528
1532020215,祐民醫院,3202,2,桃園縣中壢市五權里民族路二段１８０號,2007/3/15 ,3,Y,24.9574699,121.2037758
1532021310,仁祥醫院,3202,2,桃園縣中壢市中美路13.15.17號1-6樓,2010/3/9  ,4,Y,24.9578713,121.2274294
1532021338,中壢長榮醫院,3202,2,桃園縣中壢市環中東路150號,2010/11/22,3,Y,24.9645035,121.2579085
1532021365,華揚醫院,3202,2,桃園縣中壢市中北路二段316號,2014/10/1 ,3,Y,24.953144,121.2300011
1532040039,天成醫院,3204,2,桃園縣楊梅鎮新成路１９６號,2007/5/24 ,3,Y,24.908456,121.1469551
1532070019,大明醫院,3207,2,桃園縣龜山鄉龜山村萬壽路二段９６４號,2007/3/15 ,3,Y,24.996273,121.341126
1532091081,龍潭敏盛醫院,3209,2,桃園縣龍潭鄉烏林村中豐路１６８號,2009/6/5  ,3,Y,,
1532100049,壢新醫院,3210,2,桃園縣平鎮市廣泰路７７號,2006/4/27 ,2,Y,24.9466922,121.2053006
1533050039,東元綜合醫院,3305,2,新竹縣竹北市縣政二路６９號,2006/4/27 ,2,Y,24.8237011,121.0144284
1533051063,大安醫院,3305,2,新竹縣竹北市博愛街３１８巷６號,2005/10/20,3,Y,24.8347547,121.0081372
1533051072,新仁醫院,3305,0,新竹縣竹北市博愛街３３１號,2015/8/5  ,3,Y,24.8356106,121.0078548
1534050024,杏和醫院,3405,2,宜蘭縣礁溪鄉礁溪路4段129號,2014/8/15 ,3,Y,24.8205967,121.7691823
1535010024,苗栗協和醫院,3501,2,苗栗縣苗栗市中正路１３６７號,2006/3/6  ,3,Y,24.5412601,120.8174152
1535010051,大千綜合醫院,3501,2,苗栗縣苗栗市新光街６號,2006/3/6  ,3,Y,24.5515642,120.8156014
1535031041,通霄光田醫院,3503,2,苗栗縣通霄鎮通西里中山路８８號,2008/1/9  ,3,Y,24.4889662,120.67846
1535081078,大順醫院,3508,2,苗栗縣大湖鄉中正路４８–５號,2007/4/16 ,3,Y,24.422495,120.867676
1536060037,明德醫院,0306,3,台中縣梧棲鎮中正里仁美街３３巷５０號,2007/4/11 ,3,Y,24.253839,120.535773
1536100081,清泉醫院,0310,3,台中縣大雅鄉三和村雅潭路１７８號,          ,3,Y,24.2169319,120.666331
1536190076,賢德醫院,0319,3,台中縣太平巿宜欣里宜昌路４２０號,2005/10/20,3,Y,24.145305,120.7143044
1537010111,漢銘醫院,3701,3,彰化縣彰化市南興里中山路一段３６６號,2005/10/20,3,Y,24.0612669,120.5356455
1537070028,仁和醫院,3707,3,彰化縣田中鎮中路里中州路一段１５７號,2007/5/14 ,3,Y,23.8580068,120.5879024
1538010026,南基醫院,3801,3,南投縣南投市中興路８７０號,2010/3/30 ,3,Y,23.8989152,120.6839325
1538030037,曾漢棋綜合醫院,3803,3,南投縣草屯鎮炎峰里虎山路９１５號,2005/10/20,3,Y,23.9785896,120.6857436
1538041101,竹山秀傳醫院,3804,3,南投縣竹山鎮山崇里集山路２段７５號,2016/9/5  ,3,Y,23.8002226,120.7139639
1539050015,蔡醫院,3905,4,雲林縣土庫鎮中山路６４號,2007/4/12 ,3,Y,23.6744327,120.389765
1541011126,營新醫院,0501,4,台南縣新營市隋唐街228號,2007/4/12 ,3,Y,23.3084846,120.2998812
1542050056,建佑醫院,0705,5,高雄縣林園鄉王公村東林西路３６０號,2007/11/26,3,Y,22.5036696,120.3867497
1543010109,國仁醫院,4301,5,屏東縣屏東市福建路１７號,2005/10/27,2,Y,22.6718488,120.4922517
1543010190,民眾醫院,4301,5,屏東縣屏東市忠孝路１２０之１號,2005/10/27,3,Y,22.6764505,120.4876058
2211070014,基隆市立慢性病防治所,1107,2,基隆市信義區信二路２６６號,2007/4/4  ,4,Y,25.1298697,121.7492197
2240110018,嘉義縣立慢性病防治所,4011,4,嘉義縣太保市安仁里祥和二路東段３號,2006/3/16 ,4,Y,23.457626,120.293003
2245010013,花蓮縣立慢性病防治所,4501,2,花蓮縣花蓮市新興街200號,2007/4/4  ,4,Y,23.9911769,121.6171689
2303240013,台中市中西區衛生所,0324,3,臺中市西區民權路１０５號,2016/3/8  ,4,Y,24.1411261,120.6759224
2311010010,基隆市中正區衛生所,1101,2,基隆市中正區中正路７８６－１號,2004/12/25,4,Y,25.1513909,121.77099
2311020016,基隆市七堵區衛生所,1102,2,基隆市七堵區明德一路１６９號,2004/12/25,4,Y,25.0971406,121.7129642
2311060010,基隆市安樂區衛生所,1106,2,基隆市安樂區鶯歌里安樂路二段１６４號１樓前棟,2004/12/25,4,Y,,
2311070016,基隆市信義區衛生所,1107,2,基隆市信義區信一路６９號,2007/4/4  ,4,Y,25.1285766,121.7519195
2317020010,台中市東區衛生所,0323,3,台中市東區信義街１４２號,2016/3/8  ,4,Y,24.1334474,120.6878652
2317050018,台中市北區衛生所,0326,3,台中市北區民權路４００號２樓,2004/12/25,4,Y,24.1554176,120.6706879
2317070010,台中市南屯區衛生所,0328,3,台中市南屯區萬和路一段５０號,2004/12/25,4,Y,24.136259,120.6389615
2317080016,台中市北屯區衛生所,0329,3,台中市北屯區軍功路７７–３號,2004/12/25,4,Y,24.1776262,120.7192599
2321010013,台南巿東區衛生所,0532,5,台南市東區林森路一段４１８號,2004/12/25,4,Y,22.9849643,120.2221951
2321040011,台南巿北區衛生所,0535,5,台南北區市西華街５０號,2004/12/25,4,Y,23.0001663,120.2108959
2321060013,台南市安南區衛生所,0537,5,台南市安南區安中路二段３１０號,2004/12/25,4,Y,23.04727,120.18449
2331010016,新北市板橋市衛生所,3101,1,新北市板橋市英士路１９６號１樓,2016/3/8  ,4,Y,25.022939,121.457984
2331020012,新北市三重市衛生所,3102,1,新北市三重市中山路２－１號,2016/3/8  ,4,Y,25.0619119,121.482284
2331030018,新北市永和市衛生所,3103,2,新北市永和市秀朗路一段１３７號,2016/3/8  ,4,Y,25.0049551,121.5162821
2331040014,新北市中和市衛生所,3104,2,新北市中和市南山路４巷９號,2010/12/27,4,Y,24.999382,121.502218
2331050010,新北市新店市衛生所,3105,1,新北市新店市北新路１段８８巷１１號,2010/12/27,4,Y,24.967263,121.542988
2331060016,新北市新莊區衛生所,3106,2,新北市新莊市安寧街２號,2014/5/19 ,4,Y,25.0362505,121.452404
2331070012,新北市樹林鎮衛生所,3107,2,新北市樹林鎮中山路二段８０號１樓,2010/12/27,4,Y,24.9840297,121.4151194
2331080018,新北市鶯歌鎮衛生所,3108,2,新北市鶯歌鎮文化路３８９號,2010/12/27,4,Y,24.950582,121.352538
2331110011,新北市汐止市衛生所,3111,2,新北市汐止市仁愛路８號,2010/12/27,4,Y,25.0642481,121.6590022
2331120017,新北市瑞芳鎮衛生所,3112,2,新北市瑞芳鎮明燈路三段１號,2010/12/27,4,Y,25.1073798,121.8090713
2331130013,新北市土城市衛生所,3113,2,新北市土城市和平路２６號,2010/12/27,4,Y,24.9728567,121.4431739
2331140019,新北市蘆洲鄉衛生所,3114,1,新北市蘆洲鄉三民路８５巷４８弄１０號,2010/12/27,4,Y,25.084138,121.473323
2331150015,新北市五股鄉衛生所,3115,2,新北市五股鄉中興路四段67號之1,2010/12/27,4,Y,25.0833289,121.4370658
2331170017,新北市林口鄉衛生所,3117,1,新北市林口鄉林口路７４號１樓,2010/12/27,4,Y,25.0802977,121.3893794
2331180013,新北市深坑鄉衛生所,3118,2,新北市深坑鄉深坑村深坑子５３－５號,2010/12/27,4,Y,25.0017691,121.6149617
2331190019,新北市石碇鄉衛生所,3119,1,新北市石碇鄉石崁路２７號,2010/12/27,4,Y,24.9914022,121.657827
2331200010,新北市坪林鄉衛生所,3120,1,新北市坪林鄉坪林村坪林街１０４號１樓,2010/12/27,4,Y,,
2331210016,新北市三芝鄉衛生所,3121,2,新北市三芝鄉中山路１段１２號,2010/12/27,4,Y,25.2576487,121.5008054
2331220012,新北市石門鄉衛生所,3122,2,新北市石門鄉石門村中山路２８號之１,2010/12/27,4,Y,25.2901743,121.5659953
2331230018,新北市八里鄉衛生所,3123,1,新北市八里鄉中山路２３３號,2010/12/27,4,Y,25.149045,121.4033041
2331240014,新北市平溪鄉衛生所,3124,2,新北市平溪鄉中華街６１號１樓,2010/12/27,4,Y,25.0252182,121.7391202
2331250010,新北市雙溪鄉衛生所,3125,1,新北市雙溪鄉新基南街１９號,2010/12/27,4,Y,25.037988,121.8662568
2331260016,新北市貢寮鄉衛生所,3126,1,新北市貢寮鄉貢寮村朝陽路７０巷１０號１樓,2010/12/27,4,Y,,
2331270012,新北市金山鄉衛生所,3127,2,新北市金山鄉民生路５９號,2010/12/27,4,Y,25.2206497,121.64115
2331280018,新北市萬里鄉衛生所,3128,1,新北市萬里鄉萬里村瑪鍊路１５７號１樓,2010/12/27,4,Y,,
2331290014,新北市烏來鄉衛生所,3129,1,新北市烏來鄉匽堤路４８－１號１樓,2010/12/27,4,Y,,
2332010010,桃園市桃園區衛生所,3201,2,桃園市縣府路九號,2005/10/20,4,Y,24.9939289,121.301382
2332020016,桃園市中壢區衛生所,3202,2,桃園縣中壢市元化路１６１號,2004/12/25,4,Y,24.9597054,121.2278136
2332030012,桃園市大溪區衛生所,3203,2,桃園縣大溪鎮仁愛路１號,2004/12/25,4,Y,24.8844771,121.2854738
2332040018,桃園市楊梅區衛生所,3204,2,桃園縣楊梅鎮楊江里大華路１號,2004/12/25,4,Y,24.9078831,121.1461194
2332050014,桃園市蘆竹區衛生所,3205,2,桃園縣蘆竹鄉南崁村南崁路１５０號２Ｆ,2004/12/25,4,Y,25.046925,121.295077
2332060010,桃園市大園區衛生所,3206,2,桃園縣大園鄉田心村中正西路１９號,2004/12/25,4,Y,25.063634,121.195316
2332070016,桃園市龜山區衛生所,3207,2,桃園縣龜山鄉新路村中山街２６－１號,2004/12/25,4,Y,24.99514,121.338425
2332080012,桃園市八德區衛生所,3208,2,桃園縣八德市大華里介壽路二段３６１巷２６號,2004/12/25,4,Y,24.9482792,121.2996267
2332090018,桃園市龍潭區衛生所,3209,2,桃園縣龍潭鄉龍潭村東龍路１９６號,2004/12/25,4,Y,24.8666313,121.2134888
2332100019,桃園市平鎮區衛生所,3210,2,桃園縣平鎮市新富里１鄰振興路１號,2004/12/25,4,Y,24.9459472,121.217919
2332110015,桃園市新屋區衛生所,3211,2,桃園縣新屋鄉新生村中山路４５０號,2004/12/25,4,Y,,
2332120011,桃園市觀音區衛生所,3212,2,桃園縣觀音鄉觀音村信義路５２號,2004/12/25,4,Y,,
2332130017,桃園市復興區衛生所,3213,2,桃園縣復興鄉澤仁村中正路２５號,2005/10/20,4,Y,24.8206108,121.35203
2333010014,新竹縣關西鎮衛生所,3301,2,新竹縣關西鎮中山路２０７號,2004/12/25,4,Y,24.7917656,121.1726305
2333020010,新竹縣新埔鎮衛生所,3302,2,新竹縣新埔鎮新民里中正路７５８號,2004/12/25,4,Y,24.8279487,121.0716669
2333050018,新竹縣竹北市衛生所,3305,2,新竹縣竹北市竹北里中正西路５２號,2004/12/25,4,Y,24.839441,121.0036992
2333060014,新竹縣湖口鄉衛生所,3306,2,新竹縣湖口鄉中勢村中興街３６號,2004/12/25,4,Y,24.9009438,121.0481527
2333070010,新竹縣橫山鄉衛生所,3307,2,新竹縣橫山鄉新興街１２７巷２號,2005/10/20,4,Y,24.7172951,121.140552
2333080016,新竹縣新豐鄉衛生所,3308,2,新竹縣新豐鄉重興村建興路二段７４８巷２５號,2004/12/25,4,Y,24.8992619,120.98506
2333090012,新竹縣芎林鄉衛生所,3309,2,新竹縣芎林鄉文山路５３２號,2004/12/25,4,Y,24.7774519,121.0776185
2333100013,新竹縣寶山鄉衛生所,3310,2,新竹縣寶山鄉雙園路１２３號,2004/12/25,4,Y,24.7667499,120.9964713
2333110019,新竹縣北埔鄉衛生所,3311,2,新竹縣北埔鄉北埔村正德街３３號,2004/12/25,4,Y,24.7021769,121.0562339
2333120015,新竹縣峨眉衛生所,3312,2,新竹縣峨眉鄉峨眉村峨眉街２鄰５號,2004/12/25,4,Y,24.6672594,121.0181058
2333130011,新竹縣尖石鄉衛生所,3313,2,新竹縣尖石鄉嘉樂村２鄰４５號,2004/12/25,4,Y,24.729509,121.222275
2333140017,新竹縣五峰鄉衛生所(居家照護),3314,2,新竹縣五峰鄉大隘村９９號,2004/12/25,4,Y,24.6315991,121.119114
2334010018,宜蘭縣宜蘭市衛生所,3401,2,宜蘭市民增里復興路一段３號,2004/12/25,4,Y,,
2334040016,宜蘭縣頭城鎮衛生所,3404,2,宜蘭縣頭城鎮新建里新興路３０２、３０４號,2004/12/25,4,Y,24.856615,121.820609
2334070014,宜蘭縣員山鄉衛生所,3407,2,宜蘭縣員山鄉復興路１－９號,2007/4/4  ,4,Y,24.744169,121.72391
2334090016,宜蘭縣五結鄉衛生所,3409,2,宜蘭縣五結鄉五結村五結路１－８號,2004/12/25,4,Y,24.6868734,121.797364
2334100017,宜蘭縣三星鄉衛生所,3410,2,宜蘭縣三星鄉義德村義德街６號,2004/12/25,4,Y,24.6654001,121.65028
2334110013,宜蘭縣大同鄉衛生所,3411,2,宜蘭縣大同鄉崙埤村朝陽（巷）街４０號,2004/12/25,4,Y,24.6779782,121.6088982
2334120019,宜蘭縣南澳鄉衛生所,3412,2,宜蘭縣南澳鄉大通路６４號,2004/12/25,4,Y,24.4656706,121.8034417
2335010012,苗栗縣苗栗市衛生所,3501,3,苗栗市建民街２８號,2004/12/25,4,Y,24.5659206,120.8249443
2335020018,苗栗縣苑裡鎮衛生所,3502,3,苗栗縣苑裡鎮客庄里公民街１６號,2004/12/25,4,Y,24.4395999,120.6527551
2335040010,苗栗縣竹南鎮衛生所,3504,3,苗栗縣竹南鎮營盤里大營路２１５號,2004/12/25,4,Y,24.68792,120.87248
2335050016,苗栗縣頭份鎮衛生所,3505,3,苗栗縣頭份鎮忠孝里信東路９０號,2004/12/25,4,Y,24.688631,120.910312
2335060012,苗栗縣後龍鎮衛生所,3506,3,苗栗縣後龍鎮大莊里中山路１５６弄２１號,2004/12/25,4,Y,24.6156361,120.788868
2335070018,苗栗縣卓蘭鎮衛生所,3507,3,苗栗縣卓蘭鎮老莊里中正路１５４號,2004/12/25,4,Y,24.3121873,120.8290702
2335080014,苗栗縣大湖鄉衛生所,3508,3,苗栗縣大湖鄉明湖村中原路８７號,2004/12/25,4,Y,24.4241427,120.8658743
2335090010,苗栗縣公館鄉衛生所,3509,3,苗栗縣公館區館中村大同路７５號,2004/12/25,4,Y,,
2335100011,苗栗縣銅鑼鄉衛生所,3510,3,苗栗縣銅鑼鄉銅鑼村武聖街２號,2004/12/25,4,Y,,
2335110017,苗栗縣南庄鄉衛生所,3511,3,苗栗縣南庄鄉東村大同路１７號,2004/12/25,4,Y,24.5973587,121.0000125
2335120013,苗栗縣頭屋鄉衛生所,3512,3,苗栗縣頭屋鄉頭屋村中山街５４號,2004/12/25,4,Y,,
2335130019,苗栗縣三義鄉衛生所,3513,3,苗栗縣三義鄉廣盛村復興路４５號,2004/12/25,4,Y,24.4131429,120.7706965
2335140015,苗栗縣西湖鄉衛生所,3514,3,苗栗縣西湖鄉龍洞村１鄰１６號,2004/12/25,4,Y,,
2335150011,苗栗縣造橋鄉衛生所,3515,3,苗栗縣造橋鎮造橋村１４鄰８－２號,2004/12/25,4,Y,24.6387368,120.8652309
2335160017,苗栗縣三灣鄉衛生所,3516,3,苗栗縣三灣鄉三灣村親民路１７號,2004/12/25,4,Y,,
2335170013,苗栗縣獅潭鄉衛生所,3517,3,苗栗縣獅潭鄉新店村２鄰新店１３０號,2004/12/25,4,Y,24.5393754,120.92055
2335180019,苗栗縣泰安鄉衛生所,3518,3,苗栗縣泰安鄉清安村２鄰７２號,2007/7/3  ,4,Y,,
2336010016,台中市豐原區衛生所,0301,3,台中縣豐原市西勢里中興路１３６號,2004/12/25,4,Y,24.2481081,120.7140188
2336020012,台中市東勢區衛生所,0302,3,台中縣東勢鎮中寧里豐勢路４９０號,2004/12/25,4,Y,,
2336030018,台中市大甲區衛生所,0303,3,台中縣大甲鎮孔門里文武路１１８號,2004/12/25,4,Y,24.3479152,120.6228876
2336040014,台中市清水區衛生所,0304,3,台中縣清水鎮中山路９２號,2004/12/25,4,Y,,
2336050010,台中市沙鹿區衛生所,0305,3,台中縣沙鹿鎮洛泉里文昌路２０號,2004/12/25,4,Y,24.2416435,120.5495668
2336060016,台中市梧棲區衛生所,0306,3,台中縣梧棲鎮中山村雲集街７０巷３號,2004/12/25,4,Y,,
2336070012,台中市后里區衛生所,0307,3,台中縣后里鄉墩西村公安路８６號,2004/12/25,4,Y,24.3049203,120.7105367
2336080018,台中市神岡區衛生所,0308,3,台中縣神岡鄉神岡村神岡路２號,2004/12/25,4,Y,,
2336090014,台中市潭子區衛生所,0309,3,台中縣潭子鄉潭陽村中山路２段２４１巷５號,2004/12/25,4,Y,24.2099297,120.7042293
2336100015,台中市大雅區衛生所,0310,3,台中縣大雅鄉中清路二段１８６號,2004/12/25,4,Y,,
2336110011,台中市新社區衛生所,0311,3,台中縣新社鄉新社村興社街４段１號,2004/12/25,4,Y,24.2415909,120.8085204
2336120017,台中市石岡區衛生所,0312,3,台中縣石岡鄉萬安村石岡街６號,2004/12/25,4,Y,,
2336160011,台中市大肚區衛生所,0316,3,台中縣大肚鄉頂街里榮華街１號,2004/12/25,4,Y,24.1550798,120.5448208
2336180013,台中市霧峰區衛生所,0318,3,台中縣霧峰鄉本堂村民生路１－９號,2004/12/25,4,Y,,
2336190019,台中市太平區衛生所,0319,3,台中縣太平市中平里中平路１４６號,2004/12/25,4,Y,24.1262491,120.7184858
2336210025,台中市和平區衛生所,0321,3,台中縣和平鄉南勢村東關路３段１３２號,2004/12/25,4,Y,,
2336210034,台中市梨山衛生所,0321,3,台中縣和平鄉梨山村中正路１２號,2007/12/11,4,Y,24.2565605,121.2589162
2337010010,彰化縣彰化市南西北區衛生所,3701,3,彰化縣彰化市華北里旭光路１６６號,2014/5/16 ,4,Y,,
2337010029,彰化縣彰化市東區衛生所,3701,3,彰化縣彰化市大竹里彰南路二段２４６號,2008/7/16 ,4,Y,,
2337020016,彰化縣鹿港鎮衛生所,3702,3,彰化縣鹿港鎮順興里復興路４２３號,2004/12/25,4,Y,24.0585089,120.435326
2337030012,彰化縣和美鎮衛生所,3703,3,彰化縣和美鎮和東里彰美路五段３１９號,2005/10/20,4,Y,,
2337040018,彰化縣北斗鎮衛生所,3704,3,彰化縣北斗鎮光復里地政二巷１號,2004/12/25,4,Y,23.8759155,120.5250251
2337050014,彰化縣員林鎮衛生所,3705,3,彰化縣員林市仁美里博愛路２２９號,2005/10/20,4,Y,,
2337060010,彰化縣溪湖鎮衛生所,3706,3,彰化縣溪湖鎮太平里員鹿路三段２０１號,2004/12/25,4,Y,23.9614279,120.479231
2337070016,彰化縣田中鎮衛生所,3707,3,彰化縣田中鎮西路里斗中路一段２２２號,2005/10/20,4,Y,,
2337100019,彰化縣伸港鄉衛生所,3710,3,彰化縣伸港鄉新港村和平路９號,2005/10/20,4,Y,,
2337120020,彰化縣秀水鄉衛生所,3712,3,彰化縣秀水鄉中山路288號,2013/10/8 ,4,Y,24.0353119,120.503318
2337140013,彰化縣芬園鄉衛生所,3714,3,彰化縣芬園鄉芬園村芬草路二段２９０號,2004/12/25,4,Y,,
2337150019,彰化縣大村鄉衛生所,3715,3,彰化縣大村鄉大村村中正西路３４０號,2004/12/25,4,Y,23.9934757,120.5468386
2337160015,彰化縣埔鹽鄉衛生所,3716,3,彰化縣埔鹽鄉好修村員鹿路二段５８號,2005/10/20,4,Y,,
2337170011,彰化縣埔心鄉衛生所,3717,3,彰化縣埔心鄉義民村員鹿路二段３４０號,2004/12/25,4,Y,23.9529186,120.5437769
2337180017,彰化縣永靖鄉衛生所,3718,3,彰化縣永靖鄉永西村西興路９１號,2004/12/25,4,Y,,
2337200014,彰化縣二水鄉衛生所,3720,3,彰化縣二水鄉二水村過圳路１９號,2004/12/25,4,Y,,
2337210010,彰化縣田尾鄉衛生所,3721,3,彰化縣田尾鄉饒平村光復路２段６０８號,2004/12/25,4,Y,23.8898727,120.5326657
2337220016,彰化縣埤頭鄉衛生所,3722,3,彰化縣埤頭鄉合興村斗苑西路３８８巷１１９號,2004/12/25,4,Y,,
2337230012,彰化縣芳苑鄉衛生所,3723,3,彰化縣芳苑鄉芳苑村斗苑路芳苑段１９４巷４８號,2004/12/25,4,Y,23.9240668,120.3206051
2337240018,彰化縣大城鄉衛生所,3724,3,彰化縣大城鄉大城村中平路１２６號,2008/1/9  ,4,Y,,
2337250014,彰化縣竹塘鄉衛生所,3725,3,彰化縣竹塘鄉竹塘村竹林路一段３０４號,2004/12/25,4,Y,,
2337260010,彰化縣溪州鄉衛生所,3726,3,彰化縣溪州鄉尾厝村溪下路５７０號,2005/10/20,4,Y,23.851478,120.498326
2338010014,南投縣南投市衛生所,3801,3,南投縣南投市三和里三和一路１３號,2004/12/25,4,Y,,
2338020010,南投縣埔里鎮衛生所,3802,3,南投縣埔里鎮北門里北辰街１２８號,2005/10/20,4,Y,,
2338030016,南投縣草屯鎮衛生所,3803,3,南投縣草屯鎮碧山路５０號,2004/12/25,4,Y,23.9781881,120.6861887
2338050018,南投縣集集鎮衛生所,3805,3,南投縣集集鎮民生路１０６號,2004/12/25,4,Y,,
2338060014,南投縣名間鄉衛生所,3806,3,南投縣名間鄉中正里彰南街４２號,2004/12/25,4,Y,23.838452,120.702839
2338070010,南投縣鹿谷鄉衛生所,3807,3,南投縣鹿谷鄉鹿谷里中正路二段２０號,2004/12/25,4,Y,,
2338080016,南投縣中寮鄉衛生所,3808,3,南投縣中寮鄉永平村永昌街１０２號,2004/12/25,4,Y,,
2338090012,南投縣魚池鄉衛生所,3809,3,南投縣魚池鄉東池村魚池街１９４號,2004/12/25,4,Y,23.895732,120.94132
2338100013,南投縣國姓鄉衛生所,3810,3,南投縣國姓鄉國姓村國姓路４３３號,2004/12/25,4,Y,,
2338110019,南投縣水里鄉衛生所,3811,3,南投縣水里鄉民生路２５之５號,2004/12/25,4,Y,,
2338120015,南投縣信義鄉衛生所,3812,3,南投縣信義鄉明德村玉山路４５號,2004/12/25,4,Y,23.696291,120.854671
2338130011,南投縣仁愛鄉衛生所,3813,3,南投縣仁愛鄉大同村五福路五福巷１７號,2004/12/25,4,Y,,
2339040016,雲林縣西螺鎮衛生所,3904,4,雲林縣西螺鎮福興里修文路110   號,2004/12/25,4,Y,,
2339050012,雲林縣土庫鎮衛生所,3905,4,雲林縣土庫鎮忠正里中山路２５４號,2004/12/25,4,Y,23.678309,120.392607
2339070014,雲林縣古坑鄉衛生所,3907,4,雲林縣古坑鄉西平村中山路３９１號,2004/12/25,4,Y,,
2339080010,雲林縣大埤鄉衛生所,3908,4,雲林縣大埤鄉北和村中山路４號,2006/3/16 ,4,Y,,
2339100017,雲林縣林內鄉衛生所,3910,4,雲林縣林內鄉新興路５４號,2006/3/16 ,4,Y,23.7597238,120.6125989
2339110013,雲林縣二崙鄉衛生所,3911,4,雲林縣二崙鄉崙西村中興路９號,2006/3/16 ,4,Y,,
2339120019,雲林縣崙背鄉衛生所,3912,4,雲林縣崙背鄉南陽村南光路３４號,2004/12/25,4,Y,,
2339130015,雲林縣麥寮鄉衛生所,3913,4,雲林縣麥寮鄉麥豐村光復路４號,2004/12/25,4,Y,23.746925,120.25608
2339180015,雲林縣四湖鄉衛生所,3918,4,雲林縣四湖鄉施湖村中山西路１１８號,2004/12/25,4,Y,,
2339200012,雲林縣水林鄉衛生所,3920,4,雲林縣水林鄉水北村水林路８號,2004/12/25,4,Y,,
2340020011,嘉義縣布袋鎮衛生所,4002,4,嘉義縣布袋鎮新厝里２１號,2004/12/25,4,Y,23.3814514,120.1698975
2340030017,嘉義縣大林鎮衛生所,4003,4,嘉義縣大林鎮平林里中山路２５２號,2004/12/25,4,Y,,
2340040013,嘉義縣民雄鄉衛生所,4004,4,嘉義縣民雄鄉文化路７之２號,2004/12/25,4,Y,,
2340050019,嘉義縣溪口鄉衛生所,4005,4,嘉義縣溪口鄉溪北村中山路１號,2004/12/25,4,Y,23.6064056,120.3948197
2340060015,嘉義縣新港鄉衛生所,4006,4,嘉義縣新港鄉宮前村中山路１６７號,2004/12/25,4,Y,,
2340070011,嘉義縣六腳鄉衛生所,4007,4,嘉義縣六腳鄉蒜頭村７３號之１,2004/12/25,4,Y,,
2340080017,嘉義縣東石鄉衛生所,4008,4,嘉義縣東石鄉東石村３－２號,2004/12/25,4,Y,23.4580257,120.1502221
2340090013,嘉義縣義竹鄉衛生所,4009,4,嘉義縣義竹鄉仁里村４２２－１號,2004/12/25,4,Y,,
2340100014,嘉義縣鹿草鄉衛生所,4010,4,嘉義縣鹿草鄉西井村２８７號,2004/12/25,4,Y,,
2340110010,嘉義縣太保市衛生所,4011,4,嘉義縣太保市後潭里４４３號,2004/12/25,4,Y,23.452932,120.339468
2340120016,嘉義縣水上鄉衛生所,4012,4,嘉義縣水上鄉水上村正義路１１９號,2004/12/25,4,Y,,
2340130012,嘉義縣中埔鄉衛生所,4013,4,嘉義縣中埔鄉中埔村１３０－１號,2006/3/16 ,4,Y,,
2340140018,嘉義縣竹崎鄉衛生所,4014,4,嘉義縣竹崎鄉竹崎村文化路１９－１號,2004/12/25,4,Y,23.521732,120.551975
2340150014,嘉義縣梅山鄉衛生所,4015,4,嘉義縣梅山鄉梅北村華山路１８號,2004/12/25,4,Y,,
2340160010,嘉義縣番路鄉衛生所,4016,4,嘉義縣番路鄉下坑村菜公店６０號,2004/12/25,4,Y,,
2340180012,嘉義縣阿里山鄉衛生所,4018,4,嘉義縣阿里山鄉達邦村８５號,2004/12/25,4,Y,23.45522,120.74885
2341010019,台南市新營區衛生所,0501,4,台南縣新營市三民路７２之１號,2008/12/31,4,Y,,
2341020015,台南市鹽水區衛生所,0502,4,台南縣鹽水鎮中境里武廟路１號,2004/12/25,4,Y,,
2341030011,台南市白河區衛生所,0503,4,台南縣白河鎮永安里國光路５號,2004/12/25,4,Y,,
2341040017,台南市麻豆區衛生所,0504,4,台南縣麻豆鎮興國路１１一１號,2004/12/25,4,Y,23.1826449,120.248478
2341050013,台南市佳里區衛生所,0505,4,台南縣佳里鎮進學路１５９號,2004/12/25,4,Y,,
2341060019,台南市新化區衛生所,0506,4,台南縣新化鎮信義街３５９號,2004/12/25,4,Y,,
2341070015,台南市善化區衛生所,0507,4,台南縣善化鎮中山路２００號,2004/12/25,4,Y,23.132715,120.30018
2341080011,台南市學甲區衛生所,0508,4,台南縣學甲鎮建國路３８號１Ｆ,2004/12/25,4,Y,,
2341090017,台南市柳營區衛生所,0509,4,台南縣柳營鄉士林村５４之５號,2004/12/25,4,Y,,
2341100018,台南市後壁區衛生所,0510,4,台南縣後壁鄉後壁村３號,2006/3/16 ,4,Y,,
2341110014,台南市東山區衛生所,0511,4,台南縣東山鄉東山村２３６號,2004/12/25,4,Y,23.3261939,120.4047829
2341120010,台南市下營區衛生所,0512,4,台南縣下營鄉中山路二段１３７號,2004/12/25,4,Y,,
2341130016,台南市六甲區衛生所,0513,4,台南縣六甲鄉二甲村２６鄰中華路１１０號,2006/3/16 ,4,Y,,
2341140012,台南市官田區衛生所,0514,4,台南縣官田鄉隆田村中山路一段１２８號,2004/12/25,4,Y,23.1926535,120.3182222
2341150018,台南市大內區衛生所,0515,4,台南縣大內鄉大內村２號,2004/12/25,4,Y,,
2341160014,台南市西港區衛生所,0516,4,台南縣西港鄉西港村中山路３６８號,2004/12/25,4,Y,,
2341170010,台南市七股區衛生所,0517,4,台南縣七股鄉大埕村３７９號,2004/12/25,4,Y,,
2341180016,台南市將軍區衛生所,0518,4,台南縣將軍鄉忠興村１８５－６號,2004/12/25,4,Y,,
2341190012,台南市北門區衛生所,0519,4,台南縣北門鄉永隆村５０號,2004/12/25,4,Y,,
2341200013,台南市新巿區衛生所,0520,4,台南縣新市鄉新市村中興街１２號,2004/12/25,4,Y,,
2341210019,台南市安定區衛生所,0521,4,台南縣安定鄉安定村５９－１號,2004/12/25,4,Y,,
2341220015,台南市山上區衛生所,0522,4,台南縣山上鄉山上村２０１之１５號,2004/12/25,4,Y,,
2341230011,台南市玉井區衛生所,0523,4,台南縣玉井鄉玉井村中正路５號,2006/3/16 ,4,Y,,
2341240017,台南市楠西區衛生所,0524,4,台南縣楠西鄉中正路２２６號,2006/3/16 ,4,Y,,
2341250013,台南市南化區衛生所,0525,4,台南縣南化鄉南化村２２６號之１,2004/12/25,4,Y,23.044529,120.479308
2341270015,台南市仁德區衛生所,0527,4,台南縣仁德鄉仁德村中山路６０６巷２號,2004/12/25,4,Y,,
2341280011,台南市歸仁區衛生所,0528,4,台南縣歸仁鄉後市村中正路９０號,2004/12/25,4,Y,,
2341290017,台南市關廟區衛生所,0529,4,台南縣關廟鄉山西村中正路３８４號,2004/12/25,4,Y,,
2341300018,台南市龍崎區衛生所,0530,4,台南縣龍崎鄉崎頂村新市子１５８號,2004/12/25,4,Y,,
2341310014,台南市永康區衛生所,0531,4,台南縣永康市文化路５１號,2004/12/25,4,Y,,
2342020019,高雄市岡山區衛生所,0702,5,高雄縣岡山鎮岡山里壽天路１６－２號,2004/12/25,4,Y,,
2342030015,高雄市旗山區衛生所,0703,5,高雄縣旗山鎮文中路４號,2005/10/26,4,Y,,
2342040011,高雄市美濃區衛生所,0704,5,高雄縣美濃鎮美中路２４６號,2004/12/25,4,Y,22.8949421,120.541471
2342050017,高雄市林園區衛生所,0705,5,高雄縣林園鄉林園村林園北路１８６號,2004/12/25,4,Y,,
2342060013,高雄市大寮區衛生所,0706,5,高雄縣大寮鄉永芳村進學路１２９巷２－１號,2009/4/21 ,4,Y,,
2342070019,高雄市大樹區衛生所,0707,5,高雄縣大樹鄉檨腳村中興北路１２０號,2004/12/25,4,Y,,
2342080015,高雄市仁武區衛生所,0708,5,高雄縣仁武鄉仁武村地政街２３號,2005/10/20,4,Y,22.7008349,120.3516645
2342090011,高雄市大社區衛生所,0709,5,高雄縣大社鄉大社村自強街７號,2004/12/25,4,Y,,
2342110018,高雄市橋頭區衛生所,0711,5,高雄縣橋頭鄉橋頭村隆豊路５號,2004/12/25,4,Y,,
2342120014,高雄市燕巢區衛生所,0712,5,高雄縣燕巢鄉中興路２號,2004/12/25,4,Y,,
2342130010,高雄市田寮區衛生所,0713,5,高雄縣田寮鄉南安村崗北路３２號,2004/12/25,4,Y,22.873523,120.360375
2342140016,高雄市阿蓮區衛生所,0714,5,高雄縣阿蓮鄉民權路３８號,2005/10/20,4,Y,,
2342150012,高雄市路竹區衛生所,0715,5,高雄縣路竹鄉竹南村國昌路８６巷２２號,2007/4/24 ,4,Y,,
2342160018,高雄市湖內區衛生所,0716,5,高雄縣湖內鄉湖中路２０３號,2005/10/20,4,Y,,
2342170014,高雄市茄萣區衛生所,0717,5,高雄縣茄萣鄉吉定村濱海路二段１號,2004/12/25,4,Y,22.887911,120.185221
2342180010,高雄市永安區衛生所,0718,5,高雄縣永安鄉永安路２６號,2004/12/25,4,Y,,
2342190016,高雄市彌陀區衛生所,0719,5,高雄縣彌陀鄉彌仁村中華路１巷５弄１號,2004/12/25,4,Y,,
2342200017,高雄市梓官區衛生所,0720,5,高雄縣梓官鄉梓信村公館路４５號,2004/12/25,4,Y,,
2342210013,高雄市六龜區群醫中心,0721,5,高雄縣六龜鄉六龜村民治路１６號,2004/12/25,4,Y,,
2342220019,高雄市甲仙區衛生所,0722,5,高雄縣甲仙鄉和安村中山路５２號,2005/10/20,4,Y,,
2342230015,高雄市杉林區衛生所,0723,5,高雄縣杉林鄉上平村山仙路２４巷３７號,2004/12/25,4,Y,,
2342250017,高雄市茂林區衛生所,0725,5,高雄縣茂林鄉茂林村茂林巷８－４號,2006/3/9  ,4,Y,,
2342260013,高雄市桃源區衛生所,0726,5,高雄縣桃源鄉桃源村南進巷１８８號,2004/12/25,4,Y,,
2342270019,高雄市三民區衛生所,0727,5,高雄縣三民鄉民族村鞍山巷３５號,2004/12/25,4,Y,,
2343020013,屏東縣潮州鎮衛生所,4302,5,屏東縣潮州鎮三共里永坤路１０７號,2004/12/25,4,Y,,
2343030019,屏東縣東港鎮衛生所,4303,5,屏東縣東港鎮新生三路２３號,2004/12/25,4,Y,,
2343040015,屏東縣恆春鎮衛生所,4304,5,屏東縣恆春鎮山腳里恆南路１５８號,2004/12/25,4,Y,,
2343050011,屏東縣萬丹鄉衛生所,4305,5,屏東縣萬丹鄉四維村萬丹路５號,2004/12/25,4,Y,22.5968178,120.4884427
2343060017,屏東縣長治鄉衛生所,4306,5,屏東縣長治鄉進興村潭頭路３號,2004/12/25,4,Y,,
2343080019,屏東縣九如鄉衛生所,4308,5,屏東縣九如鄉九如路二段２４７號,2004/12/25,4,Y,,
2343090015,屏東縣里港鄉衛生所,4309,5,屏東縣里港鄉大平村中山路１０３–１號,2004/12/25,4,Y,,
2343100016,屏東縣鹽埔鄉衛生所,4310,5,屏東縣鹽埔鄉鹽北村中山路９２號,2004/12/25,4,Y,,
2343110012,屏東縣高樹鄉衛生所,4311,5,屏東縣高樹鄉高樹村興中路３２５號,2004/12/25,4,Y,22.826289,120.6005159
2343120018,屏東縣萬巒鄉衛生所,4312,5,屏東縣萬巒鄉萬全村褒忠路１４－２號,2004/12/25,4,Y,,
2343140010,屏東縣竹田鄉衛生所,4314,5,屏東縣竹田鄉竹田村中山路２５號,2004/12/25,4,Y,,
2343150016,屏東縣新埤鄉衛生所,4315,5,屏東縣新埤鄉新埤村中正路３８號,2004/12/25,4,Y,,
2343170018,屏東縣新園鄉衛生所,4317,5,屏東縣新園鄉仙吉村仙吉路８９－２號,2005/10/20,4,Y,22.543585,120.460845
2343190010,屏東縣林邊鄉衛生所,4319,5,屏東縣林邊鄉仁和村中山路３０５號,2004/12/25,4,Y,,
2343200011,屏東縣南州鄉衛生所,4320,5,屏東縣南州鄉溪南村人和路２３９號,2004/12/25,4,Y,,
2343210017,屏東縣佳冬鄉衛生所,4321,5,屏東縣佳冬鄉六根村佳和路８７－１號,2004/12/25,4,Y,,
2343230019,屏東縣車城鄉衛生所,4323,5,屏東縣車城鄉福安村福安路３０號,2004/12/25,4,Y,,
2343240015,屏東縣滿州鄉衛生所,4324,5,屏東縣滿州鄉滿州村中山路３１號,2004/12/25,4,Y,22.018626,120.838033
2343250011,屏東縣枋山鄉衛生所,4325,5,屏東縣枋山鄉枋山村枋山路９８號,2004/12/25,4,Y,,
2343260017,屏東縣三地門鄉衛生所,4326,5,屏東縣三地門鄉三地村行政街４號,2004/12/25,4,Y,,
2343270013,屏東縣霧台鄉衛生所,4327,5,屏東縣霧台鄉霧台村神山巷７０號,2004/12/25,4,Y,,
2343280019,屏東縣瑪家鄉衛生所,4328,5,屏東縣瑪家鄉北葉村風景巷８６號,2004/12/25,4,Y,,
2343290015,屏東縣泰武鄉衛生所,4329,5,屏東縣泰武鄉佳平村１７９號,2004/12/25,4,Y,22.59247,120.629916
2343300016,屏東縣來義鄉衛生所,4330,5,屏東縣來義鄉古樓村中正路９０號,2005/10/20,4,Y,,
2343310012,屏東縣春日鄉衛生所,4331,5,屏東縣春日鄉春日村春日路144號,2004/12/25,4,Y,,
2343320018,屏東縣獅子鄉衛生所,4332,5,屏東縣獅子鄉楓林村楓林二巷３１號,2004/12/25,4,Y,,
2343330014,屏東縣牡丹鄉衛生所,4333,5,屏東縣牡丹鄉石門村１９號,2004/12/25,4,Y,,
2344010011,澎湖縣馬公市第一衛生所,4401,4,澎湖縣馬公市中興里中正路１１５號,2008/4/18 ,4,Y,23.5695543,119.566316
2344020017,澎湖縣湖西鄉衛生所,4402,4,澎湖縣湖西鄉湖西村１５１－１號,2004/12/25,4,Y,,
2344030013,澎湖縣白沙鄉衛生所,4403,4,澎湖縣白沙鄉赤崁村３７４號,2004/12/25,4,Y,,
2344040019,澎湖縣西嶼鄉衛生所,4404,4,澎湖縣西嶼鄉池東村７１－１號,2010/7/20 ,4,Y,,
2344050015,澎湖縣望安衛生所,4405,4,澎湖縣望安鄉西安村３５號,2010/7/20 ,4,Y,,
2344060011,澎湖縣七美鄉衛生所,4406,4,澎湖縣七美鄉中和村四鄰２號,2010/7/20 ,4,Y,,
2345020011,花蓮縣鳳林鎮衛生所,4502,2,花蓮縣鳳林鎮鳳智里光華路９５號,2004/12/25,4,Y,,
2345030017,花蓮縣玉里鎮衛生所,4503,2,花蓮縣玉里鎮泰昌里中正路１５２號,2004/12/25,4,Y,,
2345050019,花蓮縣吉安鄉衛生所,4505,2,花蓮縣吉安鄉吉安村吉安路２段１３２號,2004/12/25,4,Y,,
2345060015,花蓮縣壽豐鄉衛生所,4506,6,花蓮縣壽豐鄉壽豊村公園路２８巷１０號,2005/10/20,4,Y,,
2345070011,花蓮縣光復鄉衛生所,4507,2,花蓮縣光復鄉大馬村中學街１５８號,2004/12/25,4,Y,23.6719092,121.425862
2345100014,花蓮縣富里鄉衛生所,4510,2,花蓮縣富里鄉富里村中山路３７８號,2004/12/25,4,Y,,
2345110010,花蓮縣秀林鄉衛生所,4511,6,花蓮縣秀林鄉秀林村１２鄰秀林路８８號,2005/10/20,4,Y,,
2345120016,花蓮縣萬榮鄉衛生所,4512,6,花蓮縣萬榮鄉萬榮村１２號,2005/10/20,4,Y,,
2345130012,花蓮縣卓溪鄉衛生所,4513,6,花蓮縣卓溪鄉卓溪村中正路６５號,2005/10/20,4,Y,,
2346010019,台東縣台東巿衛生所,4601,5,台東市博愛路２７７號,2010/1/18 ,4,Y,22.7573965,121.1488254
2346050013,台東縣大武鄉衛生所,4605,5,台東縣大武鄉大武村大武街１１３號,2004/12/25,4,Y,,
2346060019,台東縣太麻里鄉衛生所,4606,5,台東縣太麻里鄉泰和村１鄰北橋７０號,2004/12/25,4,Y,,
2346080011,台東縣長濱鄉衛生所,4608,5,台東縣長濱鄉長濱村中興街４６號,2004/12/25,4,Y,,
2346100018,台東縣池上鄉衛生所,4610,5,台東縣池上鄉福原村中山路１０４號,2004/12/25,4,Y,,
2346110014,台東縣綠島鄉衛生所,4611,5,台東縣綠島鄉中寮村１號,2004/12/25,4,Y,22.6731734,121.4727551
2346120010,台東縣延平鄉衛生所,4612,5,台東縣延平鄉桃源１鄰１１號,2004/12/25,4,Y,,
2346130016,台東縣海端鄉衛生所,4613,5,台東縣海端鄉海端村３鄰２９號,2007/1/30 ,4,Y,,
2346140012,台東縣達仁衛生所,4614,5,台東縣達仁鄉安朔村復興路１５８號,2004/12/25,4,Y,,
2346150018,台東縣金峰鄉衛生所,4615,5,台東縣金峰鄉嘉蘭村８鄰１２８號,2004/12/25,4,Y,,
2391020010,連江縣北竿衛生所,9102,1,連江縣北竿鄉塘岐村２５號,2004/12/25,4,Y,,
2391030016,連江縣西莒衛生所,9103,1,連江縣莒光鄉青帆村１６號,2004/12/25,4,Y,25.9687384,119.9369689
2391030026,連江縣東莒衛生所,9103,1,連江縣莒光鄉打大坪村６１號,2004/12/25,4,Y,,
2391040012,連江縣東引衛生所,9104,1,連江縣東引鄉樂華村９５－１號,2004/12/25,4,Y,,
2634010014,員山榮民醫院附設門診部,3401,2,宜蘭縣宜蘭市建軍里泰山路２４１號,2004/12/25,4,Y,,
3538020168,童小兒科家醫科聯合診所,3802,3,南投縣埔里鎮東門里中正路４０８號,2004/12/25,4,Y,,
