Date,County,Town,Village,VillageID,VillageLon,VillageLat,BI,BILv,HI,HILv,CI,CILv,LI,LILv,AI,Con100HH
2023/07/01,高雄市,橋頭區,甲北里,6402000-011,120.296653393912,22.7409451008197,22.388,4,12.686,3,38.461,8,311.194,6,0.0000,22.38
2023/07/01,高雄市,三民區,安生里,6400500-055,120.311403954237,22.6469513158604,0.000,0,0.000,0,0.000,0,0.000,0,0.0000,0.00
2023/07/01,高雄市,仁武區,赤山里,6401700-015,120.347043251423,22.6764640516259,15.447,3,11.382,3,32.758,8,155.284,5,0.0162,15.44
2023/07/02,高雄市,仁武區,八卦里,6401700-009,120.336912597055,22.6852855841335,4.000,1,2.000,1,6.451,3,20.000,3,0.0000,4.00
2023/07/02,高雄市,三民區,德西里,6400500-079,120.288881964866,22.6454727552808,0.000,0,0.000,0,0.000,0,0.000,0,0.0000,0.00
2023/07/02,高雄市,鳳山區,老爺里,6401200-017,120.345662334792,22.6072793067485,19.642,4,15.178,3,20.952,6,224.107,5,0.0000,19.64
2023/07/03,高雄市,鳳山區,鎮北里,6401200-009,120.371069257909,22.6414368421992,0.000,0,0.000,0,0.000,0,0.000,0,0.0000,0.00
2023/07/03,高雄市,前鎮區,良和里,6400900-032,120.310140646329,22.6060140973212,0.000,0,0.000,0,0.000,0,0.000,0,0.0000,0.00
2023/07/03,高雄市,三民區,十全里,6400500-063,120.29356926461,22.6440138177109,0.000,0,0.000,0,0.000,0,0.000,0,0.0000,0.00
2023/07/03,高雄市,左營區,新下里,6400300-039,120.299510729206,22.6711867566794,0.000,0,0.000,0,0.000,0,0.000,0,0.0000,0.00
2023/07/03,高雄市,楠梓區,加昌里,6400400-033,120.297198757136,22.7189554068796,2.000,1,2.000,1,6.666,3,40.000,4,0.0000,2.00
2023/07/03,高雄市,前鎮區,瑞南里,6400900-047,120.324202027174,22.5994662301704,2.000,1,2.000,1,10.000,4,14.000,3,0.0000,2.00
2023/07/03,高雄市,仁武區,赤山里,6401700-015,120.347043251423,22.6764640516259,13.600,3,8.000,3,23.943,6,120.000,5,0.0000,13.60
2023/07/03,高雄市,左營區,新中里,6400300-041,120.309405770329,22.6700290376611,4.000,1,4.000,2,9.523,4,10.000,2,0.0000,4.00
2023/07/03,高雄市,鳳山區,新甲里,6401200-025,120.343096832934,22.6075722637709,12.582,3,11.920,3,29.230,7,239.072,5,0.0000,12.58
2023/07/04,高雄市,仁武區,仁和里,6401700-014,120.354038721816,22.6779568117654,2.000,1,2.000,1,4.347,2,8.000,2,0.0000,2.00
2023/07/04,高雄市,湖內區,田尾里,6402500-007,120.242183764997,22.8975334913651,8.000,2,4.000,2,23.529,6,66.000,4,0.0000,8.00
2023/07/04,高雄市,湖內區,葉厝里,6402500-005,120.218703709497,22.907493961642,2.000,1,2.000,1,7.142,3,16.000,3,0.0000,2.00
2023/07/04,高雄市,旗津區,復興里,6401000-005,120.272292334142,22.601454528497,13.793,3,10.344,3,50.000,9,46.551,4,0.0000,13.79
2023/07/04,高雄市,左營區,新下里,6400300-039,120.299510729206,22.6711867566794,8.000,2,8.000,3,36.363,8,12.000,3,0.0000,8.00
2023/07/04,高雄市,三民區,鼎西里,6400500-005,120.324835266911,22.6626096574435,0.000,0,0.000,0,0.000,0,0.000,0,0.0000,0.00
2023/07/04,高雄市,三民區,十美里,6400500-064,120.296374446024,22.643802393364,2.000,1,2.000,1,16.666,5,4.000,2,0.0000,2.00
2023/07/04,高雄市,三民區,十全里,6400500-063,120.29356926461,22.6440138177109,0.000,0,0.000,0,0.000,0,0.000,0,0.0000,0.00
2023/07/04,高雄市,前鎮區,忠孝里,6400900-038,120.314325740597,22.6152656942116,0.000,0,0.000,0,0.000,0,0.000,0,0.0000,0.00
2023/07/04,高雄市,湖內區,忠興里,6402500-013,120.195899995472,22.9146333231761,2.000,1,2.000,1,3.846,2,26.000,3,0.0000,2.00
2023/07/04,高雄市,湖內區,大湖里,6402500-006,120.247611362182,22.889074330789,2.000,1,2.000,1,4.347,2,12.000,3,0.0000,2.00
2023/07/04,高雄市,湖內區,文賢里,6402500-010,120.208622205778,22.9115851734838,2.000,1,2.000,1,4.166,2,60.000,4,0.0000,2.00
2023/07/05,高雄市,前鎮區,西山里,6400900-028,120.31069254369,22.6096346253188,0.000,0,0.000,0,0.000,0,0.000,0,0.0000,0.00
2023/07/05,高雄市,前鎮區,明正里,6400900-003,120.332750525705,22.5818125779071,0.000,0,0.000,0,0.000,0,0.000,0,0.0000,0.00
2023/07/05,高雄市,三民區,博惠里,6400500-073,120.31694864592,22.6365727546477,8.000,2,8.000,3,20.000,5,34.000,4,0.0000,8.00
2023/07/05,高雄市,楠梓區,瑞屏里,6400400-013,120.307173233181,22.7224595216169,0.000,0,0.000,0,0.000,0,0.000,0,0.0000,0.00
2023/07/05,高雄市,湖內區,太爺里,6402500-003,120.230963676633,22.907936454053,7.894,2,6.578,2,10.714,4,76.315,4,0.0000,7.89
2023/07/05,高雄市,左營區,菜公里,6400300-043,120.31178326346,22.6780117583188,8.000,2,8.000,3,16.666,5,22.000,3,0.0000,8.00
2023/07/06,高雄市,左營區,菜公里,6400300-043,120.31178326346,22.6780117583188,4.000,1,4.000,2,22.222,6,8.000,2,0.0000,4.00
2023/07/06,高雄市,前鎮區,平昌里,6400900-008,120.318002379565,22.5865417933385,2.000,1,2.000,1,14.285,4,8.000,2,0.0000,2.00
2023/07/06,高雄市,三民區,博惠里,6400500-073,120.31694864592,22.6365727546477,6.000,2,6.000,2,11.538,4,16.000,3,0.0000,6.00
2023/07/06,高雄市,三民區,安邦里,6400500-062,120.297224849061,22.6470527435905,6.000,2,4.000,2,10.000,4,38.000,4,0.0000,6.00
2023/07/06,高雄市,前鎮區,瑞興里,6400900-057,120.330449910669,22.6079736076647,0.000,0,0.000,0,0.000,0,0.000,0,0.0000,0.00
2023/07/06,高雄市,湖內區,中賢里,6402500-011,120.202927581814,22.9010023219527,9.210,2,6.578,2,17.948,5,122.368,5,0.0000,9.21
2023/07/06,高雄市,苓雅區,城西里,6400800-008,120.300561285663,22.6146221115118,2.000,1,2.000,1,5.263,2,6.000,2,0.0000,2.00
2023/07/07,高雄市,苓雅區,意誠里,6400800-010,120.301713609944,22.6123071663228,2.197,1,2.197,1,6.250,3,23.076,3,0.0000,2.19
2023/07/07,高雄市,苓雅區,城西里,6400800-008,120.300561285663,22.6146221115118,3.614,1,2.409,1,7.894,3,24.096,3,0.0000,3.61
2023/07/07,高雄市,前鎮區,仁愛里,6400900-005,120.316564068599,22.5804876602519,0.000,0,0.000,0,0.000,0,0.000,0,0.0000,0.00
2023/07/07,高雄市,三民區,博愛里,6400500-072,120.310230151555,22.6383802780552,2.000,1,2.000,1,9.090,3,20.000,3,0.0000,2.00
2023/07/07,高雄市,前金區,東金里,6400700-005,120.294273887159,22.6307538911318,2.000,1,2.000,1,7.142,3,30.000,3,0.0000,2.00
2023/07/07,高雄市,鳳山區,新富里,6401200-036,120.345148324215,22.6150752842265,6.000,2,6.000,2,23.076,6,34.000,4,0.0800,6.00
2023/07/07,高雄市,左營區,進學里,6400300-001,120.295109310707,22.6919596929904,8.000,2,8.000,3,16.000,5,32.000,4,0.0000,8.00
2023/07/07,高雄市,湖內區,湖內里,6402500-008,120.23578366724,22.8774484965386,4.000,1,4.000,2,13.333,4,18.000,3,0.0000,4.00
2023/07/07,高雄市,橋頭區,仕隆里,6402000-003,120.310315947246,22.7529724366392,2.000,1,2.000,1,6.250,3,6.000,2,0.0000,2.00
2023/07/07,高雄市,橋頭區,仕隆里,6402000-003,120.310315947246,22.7529724366392,2.000,1,2.000,1,6.250,3,6.000,2,0.0000,2.00
2023/07/07,高雄市,鳳山區,老爺里,6401200-017,120.345662334792,22.6072793067485,0.000,0,0.000,0,0.000,0,0.000,0,0.0000,0.00
2023/07/07,高雄市,鳳山區,和興里,6401200-046,120.355396738715,22.6152363069927,8.000,2,6.000,2,21.052,6,86.000,4,0.0000,8.00
2023/07/07,高雄市,三民區,博惠里,6400500-073,120.31694864592,22.6365727546477,0.000,0,0.000,0,0.000,0,0.000,0,0.0000,0.00
2023/07/07,高雄市,楠梓區,仁昌里,6400400-034,120.294119259652,22.7235703036406,0.000,0,0.000,0,0.000,0,0.000,0,0.0000,0.00
2023/07/07,高雄市,仁武區,八卦里,6401700-009,120.336912597055,22.6852855841335,1.886,1,1.886,1,4.761,2,56.603,4,0.0000,1.88
2023/07/08,高雄市,路竹區,社南里,6402400-020,120.269457405842,22.855968652796,19.491,3,11.016,3,43.396,9,215.254,5,0.0000,19.49
2023/07/08,高雄市,路竹區,社西里,6402400-006,120.262158013456,22.8682683385208,10.126,3,6.329,2,12.500,4,97.468,4,0.0000,10.12
2023/07/09,高雄市,路竹區,甲南里,6402400-008,120.264488704819,22.8760496332669,24.000,4,8.000,3,30.769,7,174.000,5,0.0000,24.00
2023/07/09,高雄市,湖內區,文賢里,6402500-010,120.208622205778,22.9115851734838,8.000,2,8.000,3,18.181,5,46.000,4,0.1400,8.00
2023/07/10,高雄市,路竹區,甲南里,6402400-008,120.264488704819,22.8760496332669,9.352,2,8.633,3,22.807,6,97.122,4,0.0000,9.35
2023/07/10,高雄市,左營區,果惠里,6400300-037,120.287933605791,22.6702082301656,0.000,0,0.000,0,0.000,0,0.000,0,0.0000,0.00
2023/07/10,高雄市,小港區,桂林里,6401100-031,120.354023452103,22.5806163279836,9.615,3,8.653,3,20.408,5,125.961,5,0.0000,9.61
2023/07/10,高雄市,前鎮區,鎮北里,6400900-023,120.296097766587,22.5977889383699,0.000,0,0.000,0,0.000,0,0.000,0,0.0000,0.00
2023/07/10,高雄市,前鎮區,興化里,6400900-013,120.308465242367,22.5803171302313,0.000,0,0.000,0,0.000,0,0.000,0,0.0000,0.00
2023/07/10,高雄市,路竹區,社南里,6402400-020,120.269457405842,22.855968652796,16.279,3,12.403,3,40.384,8,217.829,5,0.0000,16.27
2023/07/10,高雄市,前鎮區,平昌里,6400900-008,120.318002379565,22.5865417933385,0.000,0,0.000,0,0.000,0,0.000,0,0.0000,0.00
2023/07/10,高雄市,楠梓區,盛昌里,6400400-022,120.271313997767,22.7106974732933,0.000,0,0.000,0,0.000,0,0.000,0,0.0000,0.00
2023/07/10,高雄市,前鎮區,瑞興里,6400900-057,120.330449910669,22.6079736076647,2.000,1,2.000,1,14.285,4,0.000,0,0.0000,2.00
2023/07/10,高雄市,前鎮區,忠誠里,6400900-025,120.315099353518,22.6006694821363,0.000,0,0.000,0,0.000,0,0.000,0,0.0000,0.00
2023/07/10,高雄市,仁武區,赤山里,6401700-015,120.347043251423,22.6764640516259,4.000,1,4.000,2,16.666,5,10.000,2,0.0000,4.00
2023/07/10,高雄市,左營區,福山里,6400300-044,120.31688893937,22.6853960803094,6.000,2,6.000,2,15.789,5,40.000,4,0.0000,6.00
2023/07/10,高雄市,鳳山區,新甲里,6401200-025,120.343096832934,22.6075722637709,0.000,0,0.000,0,0.000,0,0.000,0,0.0000,0.00
2023/07/11,高雄市,前鎮區,忠純里,6400900-024,120.303863556665,22.6031006247434,0.000,0,0.000,0,0.000,0,0.000,0,0.0000,0.00
2023/07/11,高雄市,路竹區,社南里,6402400-020,120.269457405842,22.855968652796,9.090,2,9.090,3,20.833,6,45.454,4,0.0000,9.09
2023/07/11,高雄市,前鎮區,建隆里,6400900-030,120.305923863233,22.6049377914673,3.846,1,3.846,2,11.111,4,57.692,4,0.0000,3.84
2023/07/11,高雄市,前鎮區,振興里,6400900-031,120.303394990642,22.6097676473111,2.000,1,2.000,1,7.142,3,12.000,3,0.0000,2.00
2023/07/11,高雄市,三民區,同德里,6400500-052,120.312819276852,22.6419249641928,2.000,1,2.000,1,8.333,3,10.000,2,0.0000,2.00
2023/07/11,高雄市,左營區,果惠里,6400300-037,120.287933605791,22.6702082301656,0.000,0,0.000,0,0.000,0,0.000,0,0.0000,0.00
2023/07/11,高雄市,左營區,新下里,6400300-039,120.299510729206,22.6711867566794,8.000,2,2.000,1,19.047,5,100.000,4,0.0000,8.00
2023/07/11,高雄市,路竹區,社西里,6402400-006,120.262158013456,22.8682683385208,17.582,3,15.384,3,32.000,8,213.186,5,0.0000,17.58
2023/07/12,高雄市,左營區,新下里,6400300-039,120.299510729206,22.6711867566794,5.940,2,3.960,2,13.043,4,31.683,4,0.0000,5.94
2023/07/12,高雄市,苓雅區,林榮里,6400800-045,120.325469338642,22.6175057089597,0.000,0,0.000,0,0.000,0,0.000,0,0.0000,0.00
2023/07/12,高雄市,路竹區,社南里,6402400-020,120.269457405842,22.855968652796,2.298,1,2.298,1,4.651,2,32.758,4,0.0000,2.29
2023/07/12,高雄市,永安區,維新里,6402700-006,120.24615109973,22.8075689294504,4.000,1,4.000,2,11.764,4,30.000,3,0.1000,4.00
2023/07/12,高雄市,前鎮區,瑞隆里,6400900-053,120.334694524708,22.6046310860089,0.000,0,0.000,0,0.000,0,0.000,0,0.0000,0.00
2023/07/12,高雄市,前鎮區,瑞隆里,6400900-053,120.334694524708,22.6046310860089,4.000,1,2.000,1,10.526,4,2.000,1,0.0000,4.00
2023/07/12,高雄市,苓雅區,正仁里,6400800-066,120.339477190415,22.6308252552011,0.000,0,0.000,0,0.000,0,0.000,0,0.0000,0.00
2023/07/12,高雄市,鳳山區,文福里,6401200-060,120.348142919295,22.6355255346152,14.457,3,10.843,3,26.086,6,100.000,4,0.0000,14.45
2023/07/12,高雄市,左營區,海勝里,6400300-032,120.290489199325,22.67285078766,0.000,0,0.000,0,0.000,0,0.000,0,0.0000,0.00
2023/07/13,高雄市,左營區,新上里,6400300-040,120.308224914317,22.6621251399324,6.000,2,6.000,2,25.000,6,26.000,3,0.0000,6.00
2023/07/13,高雄市,鳳山區,文福里,6401200-060,120.348142919295,22.6355255346152,13.114,3,7.377,2,23.880,6,128.688,5,0.0000,13.11
2023/07/13,高雄市,鳳山區,文福里,6401200-060,120.348142919295,22.6355255346152,2.000,1,2.000,1,3.846,2,14.000,3,0.0000,2.00
2023/07/13,高雄市,苓雅區,文昌里,6400800-067,120.338807115814,22.6332995018112,4.000,1,4.000,2,15.384,5,26.000,3,0.0000,4.00
2023/07/13,高雄市,小港區,宏亮里,6401100-017,120.361481113147,22.5682658318148,2.000,1,2.000,1,5.263,2,10.000,2,0.0000,2.00
2023/07/13,高雄市,前鎮區,瑞隆里,6400900-053,120.334694524708,22.6046310860089,0.000,0,0.000,0,0.000,0,0.000,0,0.0000,0.00
2023/07/13,高雄市,前鎮區,瑞隆里,6400900-053,120.334694524708,22.6046310860089,1.694,1,1.694,1,3.125,2,42.372,4,0.0000,1.69
2023/07/13,高雄市,前鎮區,瑞昌里,6400900-061,120.333794701611,22.6071477015255,0.000,0,0.000,0,0.000,0,0.000,0,0.0000,0.00
2023/07/13,高雄市,鼓山區,明誠里,6400200-017,120.297928763669,22.6634651243903,6.000,2,6.000,2,14.285,4,50.000,4,0.0000,6.00
2023/07/13,高雄市,三民區,寶民里,6400500-023,120.340890727406,22.6356501855158,3.960,1,3.960,2,5.405,2,17.821,3,0.0000,3.96
2023/07/13,高雄市,苓雅區,林榮里,6400800-045,120.325469338642,22.6175057089597,2.000,1,2.000,1,7.142,3,10.000,2,0.0000,2.00
2023/07/13,高雄市,前鎮區,鎮海里,6400900-019,120.31716475852,22.5905845934522,0.000,0,0.000,0,0.000,0,0.000,0,0.0000,0.00
2023/07/13,高雄市,前鎮區,忠孝里,6400900-038,120.314325740597,22.6152656942116,0.000,0,0.000,0,0.000,0,0.000,0,0.0000,0.00
2023/07/13,高雄市,鳳山區,文德里,6401200-039,120.350936651088,22.6438998029759,2.000,1,2.000,1,5.555,3,12.000,3,0.0000,2.00
2023/07/14,高雄市,鳳山區,文德里,6401200-039,120.350936651088,22.6438998029759,8.421,2,7.368,2,16.666,5,97.894,4,0.0105,8.42
2023/07/14,高雄市,鳳山區,文德里,6401200-039,120.350936651088,22.6438998029759,4.000,1,4.000,2,8.000,3,38.000,4,0.0000,4.00
2023/07/14,高雄市,橋頭區,甲北里,6402000-011,120.296653393912,22.7409451008197,6.000,2,6.000,2,4.687,2,50.000,4,0.0000,6.00
2023/07/14,高雄市,前鎮區,忠孝里,6400900-038,120.314325740597,22.6152656942116,0.000,0,0.000,0,0.000,0,0.000,0,0.0000,0.00
2023/07/14,高雄市,左營區,新下里,6400300-039,120.299510729206,22.6711867566794,2.000,1,2.000,1,5.263,2,20.000,3,0.0000,2.00
2023/07/14,高雄市,三民區,寶民里,6400500-023,120.340890727406,22.6356501855158,2.000,1,2.000,1,5.263,2,10.000,2,0.0000,2.00
2023/07/14,高雄市,前鎮區,竹中里,6400900-045,120.320450183768,22.6140442357205,2.000,1,2.000,1,11.111,4,12.000,3,0.0000,2.00
2023/07/14,高雄市,苓雅區,正大里,6400800-061,120.333152546275,22.629579094131,2.000,1,2.000,1,6.250,3,14.000,3,0.0000,2.00
2023/07/14,高雄市,鳳山區,文福里,6401200-060,120.348142919295,22.6355255346152,0.000,0,0.000,0,0.000,0,0.000,0,0.0000,0.00
2023/07/14,高雄市,左營區,菜公里,6400300-043,120.31178326346,22.6780117583188,8.000,2,8.000,3,6.779,3,34.000,4,0.0000,8.00
2023/07/15,高雄市,三民區,寶興里,6400500-019,120.328950647764,22.6439889388348,8.000,2,8.000,3,30.769,7,68.000,4,0.0400,8.00
2023/07/15,高雄市,鳳山區,一甲里,6401200-028,120.337238854419,22.6006394913022,10.000,3,6.000,2,16.666,5,98.000,4,0.0400,10.00
2023/07/16,高雄市,鳳山區,一甲里,6401200-028,120.337238854419,22.6006394913022,18.518,3,18.518,4,41.666,9,250.000,5,0.0000,18.51
2023/07/16,高雄市,三民區,寶興里,6400500-019,120.328950647764,22.6439889388348,25.454,4,9.090,3,34.146,8,140.000,5,0.0000,25.45
2023/07/17,高雄市,三民區,寶興里,6400500-019,120.328950647764,22.6439889388348,3.960,1,3.960,2,10.000,4,16.831,3,0.0198,3.96
2023/07/17,高雄市,路竹區,社南里,6402400-020,120.269457405842,22.855968652796,0.000,0,0.000,0,0.000,0,0.000,0,0.0000,0.00
2023/07/17,高雄市,三民區,寶龍里,6400500-028,120.323519935066,22.6455805107694,2.000,1,2.000,1,2.439,1,14.000,3,0.0000,2.00
2023/07/17,高雄市,前鎮區,瑞北里,6400900-054,120.327110653739,22.6092601504009,0.000,0,0.000,0,0.000,0,0.000,0,0.0000,0.00
2023/07/17,高雄市,左營區,菜公里,6400300-043,120.31178326346,22.6780117583188,0.000,0,0.000,0,0.000,0,0.000,0,0.0000,0.00
2023/07/17,高雄市,鳳山區,一甲里,6401200-028,120.337238854419,22.6006394913022,9.090,2,9.090,3,14.285,4,133.333,5,0.0000,9.09
2023/07/17,高雄市,鳳山區,正義里,6401200-027,120.34031583266,22.6028596555928,9.375,2,9.375,3,23.076,6,148.437,5,0.0000,9.37
2023/07/17,高雄市,鳳山區,善美里,6401200-075,120.334121963659,22.6014008783692,3.571,1,3.571,2,7.407,3,41.071,4,0.0000,3.57
2023/07/17,高雄市,前鎮區,草衙里,6400900-001,120.3239204207,22.5728145437726,0.000,0,0.000,0,0.000,0,0.000,0,0.0000,0.00
2023/07/18,高雄市,左營區,新下里,6400300-039,120.299510729206,22.6711867566794,4.000,1,2.000,1,13.333,4,12.000,3,0.0000,4.00
2023/07/18,高雄市,左營區,進學里,6400300-001,120.295109310707,22.6919596929904,0.000,0,0.000,0,0.000,0,0.000,0,0.0000,0.00
2023/07/18,高雄市,鳳山區,一甲里,6401200-028,120.337238854419,22.6006394913022,2.000,1,2.000,1,7.692,3,80.000,4,0.0000,2.00
2023/07/18,高雄市,鳳山區,文德里,6401200-039,120.350936651088,22.6438998029759,2.000,1,2.000,1,10.000,4,16.000,3,0.0000,2.00
2023/07/18,高雄市,前鎮區,瑞西里,6400900-055,120.326637716724,22.6065774625947,0.000,0,0.000,0,0.000,0,0.000,0,0.0000,0.00
2023/07/18,高雄市,前鎮區,興邦里,6400900-021,120.312161931283,22.5960418499661,0.000,0,0.000,0,0.000,0,0.000,0,0.0000,0.00
2023/07/18,高雄市,三民區,正興里,6400500-038,120.318926456279,22.6463207067984,6.000,2,6.000,2,23.076,6,76.000,4,0.0000,6.00
2023/07/18,高雄市,三民區,寶興里,6400500-019,120.328950647764,22.6439889388348,2.000,1,2.000,1,4.545,2,2.000,1,0.0000,2.00
2023/07/18,高雄市,三民區,鼎強里,6400500-003,120.324974301843,22.6716094229418,12.903,3,11.612,3,14.814,5,118.064,5,0.0000,12.90
2023/07/19,高雄市,三民區,寶安里,6400500-027,120.328894870274,22.6403596775204,8.333,2,8.333,3,9.210,3,63.095,4,0.0000,8.33
2023/07/19,高雄市,前鎮區,鎮陽里,6400900-020,120.30874566653,22.5915385353213,0.000,0,0.000,0,0.000,0,0.000,0,0.0000,0.00
2023/07/19,高雄市,前鎮區,鎮陽里,6400900-020,120.30874566653,22.5915385353213,0.000,0,0.000,0,0.000,0,0.000,0,0.0000,0.00
2023/07/19,高雄市,左營區,新中里,6400300-041,120.309405770329,22.6700290376611,8.000,2,6.000,2,21.052,6,18.000,3,0.0000,8.00
2023/07/19,高雄市,鳳山區,正義里,6401200-027,120.34031583266,22.6028596555928,8.333,2,6.666,2,24.390,6,81.666,4,0.0000,8.33
2023/07/19,高雄市,湖內區,文賢里,6402500-010,120.208622205778,22.9115851734838,2.000,1,2.000,1,2.777,2,12.000,3,0.0000,2.00
2023/07/19,高雄市,路竹區,甲南里,6402400-008,120.264488704819,22.8760496332669,0.000,0,0.000,0,0.000,0,0.000,0,0.0000,0.00
2023/07/19,高雄市,小港區,桂林里,6401100-031,120.354023452103,22.5806163279836,0.000,0,0.000,0,0.000,0,0.000,0,0.0000,0.00
2023/07/19,高雄市,前鎮區,振興里,6400900-031,120.303394990642,22.6097676473111,6.000,2,6.000,2,37.500,8,38.000,4,0.0000,6.00
2023/07/19,高雄市,苓雅區,永康里,6400800-058,120.330049511306,22.6271069592141,0.000,0,0.000,0,0.000,0,0.000,0,0.0000,0.00
2023/07/20,高雄市,苓雅區,永康里,6400800-058,120.330049511306,22.6271069592141,2.000,1,2.000,1,5.263,2,2.000,1,0.0000,2.00
2023/07/20,高雄市,前鎮區,振興里,6400900-031,120.303394990642,22.6097676473111,18.248,3,10.948,3,24.038,6,232.846,5,0.0000,18.24
2023/07/20,高雄市,前鎮區,忠孝里,6400900-038,120.314325740597,22.6152656942116,0.000,0,0.000,0,0.000,0,0.000,0,0.0000,0.00
2023/07/20,高雄市,苓雅區,意誠里,6400800-010,120.301713609944,22.6123071663228,12.328,3,10.958,3,19.565,5,113.698,5,0.0000,12.32
2023/07/20,高雄市,左營區,新下里,6400300-039,120.299510729206,22.6711867566794,8.000,2,8.000,3,22.222,6,32.000,4,0.0000,8.00
2023/07/20,高雄市,仁武區,八卦里,6401700-009,120.336912597055,22.6852855841335,0.000,0,0.000,0,0.000,0,0.000,0,0.0000,0.00
2023/07/20,高雄市,鳳山區,武松里,6401200-058,120.365593083589,22.6368028852987,2.000,1,2.000,1,7.692,3,20.000,3,0.0000,2.00
2023/07/20,高雄市,三民區,鼎強里,6400500-003,120.324974301843,22.6716094229418,0.000,0,0.000,0,0.000,0,0.000,0,0.0000,0.00
2023/07/21,高雄市,三民區,寶興里,6400500-019,120.328950647764,22.6439889388348,2.000,1,2.000,1,4.166,2,10.000,2,0.0000,2.00
2023/07/21,高雄市,三民區,寶興里,6400500-019,120.328950647764,22.6439889388348,0.000,0,0.000,0,0.000,0,0.000,0,0.0000,0.00
2023/07/21,高雄市,楠梓區,加昌里,6400400-033,120.297198757136,22.7189554068796,2.000,1,2.000,1,5.263,2,10.000,2,0.0000,2.00
2023/07/21,高雄市,三民區,博惠里,6400500-073,120.31694864592,22.6365727546477,0.000,0,0.000,0,0.000,0,0.000,0,0.0000,0.00
2023/07/21,高雄市,苓雅區,苓東里,6400800-006,120.294722380972,22.6121388366317,12.000,3,8.000,3,22.222,6,102.000,5,0.0000,12.00
2023/07/21,高雄市,三民區,安東里,6400500-046,120.307074723221,22.6494110726353,0.000,0,0.000,0,0.000,0,0.000,0,0.0000,0.00
2023/07/21,高雄市,三民區,安東里,6400500-046,120.307074723221,22.6494110726353,0.000,0,0.000,0,0.000,0,0.000,0,0.0000,0.00
2023/07/21,高雄市,三民區,安生里,6400500-055,120.311403954237,22.6469513158604,2.000,1,2.000,1,7.692,3,10.000,2,0.0000,2.00
2023/07/21,高雄市,鳳山區,文福里,6401200-060,120.348142919295,22.6355255346152,2.000,1,2.000,1,3.030,2,16.000,3,0.0000,2.00
2023/07/21,高雄市,左營區,新上里,6400300-040,120.308224914317,22.6621251399324,8.000,2,8.000,3,23.529,6,42.000,4,0.0000,8.00
2023/07/21,高雄市,苓雅區,苓中里,6400800-004,120.293739057542,22.6150596912151,14.754,3,13.114,3,26.470,6,77.049,4,0.0000,14.75
2023/07/21,高雄市,鳳山區,正義里,6401200-027,120.34031583266,22.6028596555928,2.666,1,2.666,1,12.500,4,33.333,4,0.0000,2.66
2023/07/21,高雄市,鳳山區,一甲里,6401200-028,120.337238854419,22.6006394913022,0.000,0,0.000,0,0.000,0,0.000,0,0.0000,0.00
2023/07/23,高雄市,路竹區,竹西里,6402400-012,120.252719642787,22.8668227147416,37.500,5,20.312,4,32.876,8,379.687,6,0.0937,37.50
2023/07/23,高雄市,路竹區,文北里,6402400-013,120.247378667939,22.8624655068865,25.000,4,19.230,4,32.500,8,165.384,5,0.0384,25.00
2023/07/24,高雄市,三民區,安東里,6400500-046,120.307074723221,22.6494110726353,2.000,1,2.000,1,9.090,3,10.000,2,0.0000,2.00
2023/07/24,高雄市,三民區,博惠里,6400500-073,120.31694864592,22.6365727546477,0.000,0,0.000,0,0.000,0,0.000,0,0.0000,0.00
2023/07/24,高雄市,三民區,寶民里,6400500-023,120.340890727406,22.6356501855158,4.000,1,4.000,2,11.111,4,30.000,3,0.0000,4.00
2023/07/24,高雄市,前鎮區,西甲里,6400900-033,120.306952233418,22.611539170876,4.000,1,4.000,2,10.000,4,40.000,4,0.0000,4.00
2023/07/24,高雄市,前鎮區,瑞隆里,6400900-053,120.334694524708,22.6046310860089,0.000,0,0.000,0,0.000,0,0.000,0,0.0000,0.00
2023/07/24,高雄市,鳳山區,文福里,6401200-060,120.348142919295,22.6355255346152,1.449,1,1.449,1,2.985,2,5.072,2,0.0000,1.44
2023/07/24,高雄市,鳳山區,文華里,6401200-056,120.356133941461,22.6340895972997,2.000,1,2.000,1,4.545,2,8.000,2,0.0000,2.00
2023/07/24,高雄市,鳳山區,忠孝里,6401200-044,120.347462585239,22.6310855088349,6.000,2,6.000,2,21.428,6,24.000,3,0.0000,6.00
2023/07/24,高雄市,鳳山區,富甲里,6401200-054,120.334572019917,22.5988781382186,2.000,1,2.000,1,5.263,2,2.000,1,0.0000,2.00
2023/07/24,高雄市,三民區,寶華里,6400500-021,120.34255250166,22.6377793687028,2.000,1,2.000,1,4.761,2,30.000,3,0.0000,2.00
2023/07/24,高雄市,左營區,埤北里,6400300-030,120.289652020483,22.6792297777538,0.000,0,0.000,0,0.000,0,0.000,0,0.0000,0.00
2023/07/24,高雄市,三民區,寶業里,6400500-025,120.345282811549,22.6398907243105,4.000,1,4.000,2,11.764,4,44.000,4,0.0000,4.00
2023/07/24,高雄市,苓雅區,苓中里,6400800-004,120.293739057542,22.6150596912151,2.000,1,2.000,1,4.545,2,2.000,1,0.0000,2.00
2023/07/24,高雄市,前鎮區,振興里,6400900-031,120.303394990642,22.6097676473111,4.000,1,4.000,2,13.333,4,120.000,5,0.0000,4.00
2023/07/24,高雄市,前鎮區,建隆里,6400900-030,120.305923863233,22.6049377914673,10.000,3,6.000,2,25.000,6,70.000,4,0.0000,10.00
2023/07/24,高雄市,三民區,達明里,6400500-049,120.305274145587,22.6445640862904,0.000,0,0.000,0,0.000,0,0.000,0,0.0000,0.00
2023/07/24,高雄市,三民區,十全里,6400500-063,120.29356926461,22.6440138177109,0.000,0,0.000,0,0.000,0,0.000,0,0.0000,0.00
2023/07/24,高雄市,鳳山區,一甲里,6401200-028,120.337238854419,22.6006394913022,0.000,0,0.000,0,0.000,0,0.000,0,0.0000,0.00
2023/07/24,高雄市,鳳山區,文衡里,6401200-059,120.351375440812,22.6391485287523,2.000,1,2.000,1,11.111,4,20.000,3,0.0400,2.00
2023/07/24,高雄市,鳳山區,正義里,6401200-027,120.34031583266,22.6028596555928,0.000,0,0.000,0,0.000,0,0.000,0,0.0000,0.00
2023/07/24,高雄市,鳳山區,善美里,6401200-075,120.334121963659,22.6014008783692,2.000,1,2.000,1,5.555,3,6.000,2,0.0000,2.00
2023/07/25,高雄市,左營區,尾北里,6400300-009,120.302673128867,22.6877706917203,4.000,1,4.000,2,16.666,5,12.000,3,0.0000,4.00
2023/07/25,高雄市,前鎮區,振興里,6400900-031,120.303394990642,22.6097676473111,0.000,0,0.000,0,0.000,0,0.000,0,0.0000,0.00
2023/07/25,高雄市,路竹區,竹西里,6402400-012,120.252719642787,22.8668227147416,1.265,1,1.265,1,2.702,2,10.126,2,0.0000,1.26
2023/07/25,高雄市,鳳山區,文福里,6401200-060,120.348142919295,22.6355255346152,2.500,1,2.500,1,4.000,2,2.500,1,0.0000,2.50
2023/07/25,高雄市,茄萣區,嘉賜里,6402600-004,120.18667569034,22.9044116335371,1.010,1,1.010,1,2.500,1,2.020,1,0.0000,1.01
2023/07/26,高雄市,旗山區,湄洲里,6403000-003,120.479299563328,22.8885606665833,12.000,3,12.000,3,25.000,6,80.000,4,0.0800,12.00
2023/07/26,高雄市,三民區,精華里,6400500-058,120.299997793979,22.6421541313308,7.954,2,7.954,3,15.909,5,102.272,5,0.0454,7.95
2023/07/26,高雄市,三民區,精華里,6400500-058,120.299997793979,22.6421541313308,2.000,1,2.000,1,4.347,2,6.000,2,0.0000,2.00
2023/07/26,高雄市,三民區,寶中里,6400500-020,120.324894809636,22.6431687439934,2.000,1,2.000,1,5.555,3,6.000,2,0.0000,2.00
2023/07/26,高雄市,苓雅區,苓東里,6400800-006,120.294722380972,22.6121388366317,0.000,0,0.000,0,0.000,0,0.000,0,0.0000,0.00
2023/07/26,高雄市,梓官區,梓信里,6402900-001,120.26119235331,22.7659786753388,12.000,3,6.000,2,25.000,6,86.000,4,0.0000,12.00
2023/07/26,高雄市,左營區,新下里,6400300-039,120.299510729206,22.6711867566794,0.000,0,0.000,0,0.000,0,0.000,0,0.0000,0.00
2023/07/26,高雄市,前鎮區,振興里,6400900-031,120.303394990642,22.6097676473111,0.000,0,0.000,0,0.000,0,0.000,0,0.0000,0.00
2023/07/26,高雄市,前鎮區,盛興里,6400900-034,120.308280611369,22.6141207127801,6.000,2,6.000,2,42.857,9,36.000,4,0.0200,6.00
2023/07/26,高雄市,前鎮區,盛興里,6400900-034,120.308280611369,22.6141207127801,0.000,0,0.000,0,0.000,0,0.000,0,0.0000,0.00
2023/07/26,高雄市,前鎮區,盛豐里,6400900-035,120.310143501809,22.6135101094861,4.000,1,4.000,2,10.000,4,14.000,3,0.0000,4.00
2023/07/26,高雄市,苓雅區,苓中里,6400800-004,120.293739057542,22.6150596912151,0.000,0,0.000,0,0.000,0,0.000,0,0.0000,0.00
2023/07/26,高雄市,苓雅區,意誠里,6400800-010,120.301713609944,22.6123071663228,0.000,0,0.000,0,0.000,0,0.000,0,0.0000,0.00
2023/07/26,高雄市,岡山區,後協里,6401900-012,120.276322719906,22.7876782137066,8.000,2,8.000,3,17.391,5,74.000,4,0.0000,8.00
2023/07/27,高雄市,左營區,新下里,6400300-039,120.299510729206,22.6711867566794,0.000,0,0.000,0,0.000,0,0.000,0,0.0000,0.00
2023/07/28,高雄市,左營區,埤東里,6400300-031,120.292953213503,22.6773775048247,0.000,0,0.000,0,0.000,0,0.000,0,0.0000,0.00
2023/07/29,高雄市,前金區,青山里,6400700-009,120.297924037915,22.6290004792726,10.000,3,8.000,3,23.809,6,304.000,6,0.0200,10.00
2023/07/29,高雄市,梓官區,梓信里,6402900-001,120.26119235331,22.7659786753388,9.677,3,9.677,3,17.142,5,70.967,4,0.0000,9.67
2023/07/29,高雄市,三民區,鼎強里,6400500-003,120.324974301843,22.6716094229418,0.000,0,0.000,0,0.000,0,0.000,0,0.0000,0.00
2023/07/29,高雄市,旗津區,復興里,6401000-005,120.272292334142,22.601454528497,14.000,3,10.000,3,30.434,7,102.000,5,0.0200,14.00
2023/07/30,高雄市,旗津區,中華里,6401000-006,120.268398572929,22.6040983179237,4.000,1,4.000,2,11.764,4,44.000,4,0.0000,4.00
2023/07/30,高雄市,左營區,果貿里,6400300-036,120.288399956382,22.6712708099325,4.000,1,4.000,2,9.523,4,24.000,3,0.0000,4.00
2023/07/31,高雄市,旗津區,北汕里,6401000-008,120.275823975238,22.5969761150186,13.953,3,9.302,3,25.531,6,68.604,4,0.0465,13.95
2023/07/31,高雄市,旗津區,復興里,6401000-005,120.272292334142,22.601454528497,12.000,3,8.000,3,25.000,6,78.000,4,0.1000,12.00
2023/07/31,高雄市,苓雅區,正義里,6400800-065,120.338963478124,22.6268466283555,28.169,4,21.126,4,41.666,9,421.126,6,0.0000,28.16
2023/07/31,高雄市,前鎮區,民權里,6400900-029,120.313637813638,22.6079856636116,4.000,1,4.000,2,9.090,3,10.000,2,0.0000,4.00
2023/08/01,高雄市,旗津區,旗下里,6401000-001,120.265172490521,22.6137998286386,2.000,1,2.000,1,6.250,3,4.000,2,0.0000,2.00
2023/08/01,高雄市,旗津區,永安里,6401000-002,120.26646295186,22.6118079890027,0.000,0,0.000,0,0.000,0,0.000,0,0.0000,0.00
2023/08/01,高雄市,路竹區,文北里,6402400-013,120.247378667939,22.8624655068865,0.000,0,0.000,0,0.000,0,0.000,0,0.0000,0.00
2023/08/01,高雄市,左營區,埤東里,6400300-031,120.292953213503,22.6773775048247,0.000,0,0.000,0,0.000,0,0.000,0,0.0000,0.00
2023/08/01,高雄市,楠梓區,清豐里,6400400-001,120.331135228679,22.7441569161639,0.000,0,0.000,0,0.000,0,0.000,0,0.0000,0.00
2023/08/01,高雄市,楠梓區,清豐里,6400400-001,120.331135228679,22.7441569161639,0.000,0,0.000,0,0.000,0,0.000,0,0.0000,0.00
2023/08/01,高雄市,岡山區,後協里,6401900-012,120.276322719906,22.7876782137066,2.000,1,2.000,1,6.666,3,16.000,3,0.0000,2.00
2023/08/02,高雄市,鳳山區,協和里,6401200-047,120.349093009453,22.6227855928453,10.000,3,10.000,3,29.411,7,132.000,5,0.0000,10.00
2023/08/02,高雄市,左營區,自助里,6400300-035,120.286057377047,22.6749368498324,8.000,2,8.000,3,12.903,4,16.000,3,0.0000,8.00
2023/08/02,高雄市,鼓山區,鼓岩里,6400200-021,120.272750981554,22.6411566815614,12.000,3,2.000,1,27.272,6,86.000,4,0.0200,12.00
2023/08/02,高雄市,鼓山區,正德里,6400200-011,120.269435481657,22.6490200829927,8.000,2,8.000,3,25.000,6,52.000,4,0.0000,8.00
2023/08/02,高雄市,三民區,安宜里,6400500-060,120.296919111988,22.6499656887844,2.000,1,2.000,1,20.000,5,4.000,2,0.0000,2.00
2023/08/02,高雄市,前鎮區,建隆里,6400900-030,120.305923863233,22.6049377914673,0.000,0,0.000,0,0.000,0,0.000,0,0.0000,0.00
2023/08/02,高雄市,梓官區,梓信里,6402900-001,120.26119235331,22.7659786753388,2.000,1,2.000,1,5.263,2,10.000,2,0.0000,2.00
2023/08/02,高雄市,鼓山區,龍井里,6400200-010,120.266543013437,22.657733990878,10.000,3,6.000,2,25.000,6,74.000,4,0.0000,10.00
2023/08/02,高雄市,三民區,建東里,6400500-075,120.298154486909,22.6383547748627,16.000,3,16.000,3,42.105,9,66.000,4,0.0000,16.00
2023/08/02,高雄市,三民區,建東里,6400500-075,120.298154486909,22.6383547748627,14.000,3,10.000,3,21.212,6,174.000,5,0.0000,14.00
2023/08/02,高雄市,三民區,安生里,6400500-055,120.311403954237,22.6469513158604,0.000,0,0.000,0,0.000,0,0.000,0,0.0000,0.00
2023/08/02,高雄市,三民區,安生里,6400500-055,120.311403954237,22.6469513158604,0.000,0,0.000,0,0.000,0,0.000,0,0.0000,0.00
2023/08/02,高雄市,三民區,德東里,6400500-056,120.298460625536,22.6436534340549,0.000,0,0.000,0,0.000,0,0.000,0,0.0000,0.00
2023/08/02,高雄市,三民區,德仁里,6400500-054,120.309244335607,22.6408193183846,0.000,0,0.000,0,0.000,0,0.000,0,0.0000,0.00
2023/08/02,高雄市,小港區,坪頂里,6401100-027,120.386531295458,22.5459334455366,4.000,1,4.000,2,10.526,4,76.000,4,0.0000,4.00
2023/08/02,高雄市,旗山區,湄洲里,6403000-003,120.479299563328,22.8885606665833,4.000,1,4.000,2,16.666,5,6.000,2,0.0000,4.00
2023/08/02,高雄市,美濃區,龍山里,6403100-006,120.55897642487,22.8711176764711,18.000,3,14.000,3,28.125,7,144.000,5,0.0800,18.00
2023/08/03,高雄市,左營區,菜公里,6400300-043,120.31178326346,22.6780117583188,4.000,1,4.000,2,12.500,4,10.000,2,0.0000,4.00
2023/08/03,高雄市,苓雅區,正義里,6400800-065,120.338963478124,22.6268466283555,0.000,0,0.000,0,0.000,0,0.000,0,0.0000,0.00
2023/08/03,高雄市,三民區,建東里,6400500-075,120.298154486909,22.6383547748627,0.000,0,0.000,0,0.000,0,0.000,0,0.0000,0.00
2023/08/03,高雄市,前鎮區,振興里,6400900-031,120.303394990642,22.6097676473111,0.000,0,0.000,0,0.000,0,0.000,0,0.0000,0.00
2023/08/03,高雄市,左營區,果貿里,6400300-036,120.288399956382,22.6712708099325,2.000,1,2.000,1,7.142,3,4.000,2,0.0000,2.00
2023/08/03,高雄市,鼓山區,興宗里,6400200-024,120.27674031661,22.6356480781398,10.000,3,8.000,3,16.666,5,130.000,5,0.4000,10.00
2023/08/03,高雄市,鳳山區,協和里,6401200-047,120.349093009453,22.6227855928453,2.000,1,2.000,1,5.555,3,16.000,3,0.0000,2.00
2023/08/04,高雄市,鳳山區,福誠里,6401200-049,120.324306140127,22.5946341776127,0.000,0,0.000,0,0.000,0,0.000,0,0.0000,0.00
2023/08/04,高雄市,鳳山區,中和里,6401200-008,120.346870407089,22.6266337764999,2.000,1,2.000,1,8.333,3,8.000,2,0.0000,2.00
2023/08/04,高雄市,仁武區,五和里,6401700-013,120.330816272544,22.6953231352959,10.000,3,8.000,3,16.666,5,56.000,4,0.0200,10.00
2023/08/04,高雄市,楠梓區,和昌里,6400400-027,120.294613167624,22.7084680672459,0.000,0,0.000,0,0.000,0,0.000,0,0.0000,0.00
2023/08/04,高雄市,前鎮區,盛豐里,6400900-035,120.310143501809,22.6135101094861,0.000,0,0.000,0,0.000,0,0.000,0,0.0000,0.00
2023/08/04,高雄市,前金區,青山里,6400700-009,120.297924037915,22.6290004792726,0.000,0,0.000,0,0.000,0,0.000,0,0.0000,0.00
2023/08/04,高雄市,前鎮區,忠孝里,6400900-038,120.314325740597,22.6152656942116,0.000,0,0.000,0,0.000,0,0.000,0,0.0000,0.00
2023/08/04,高雄市,前金區,博孝里,6400700-016,120.292641350857,22.6215824799405,8.000,2,8.000,3,14.814,5,52.000,4,0.0200,8.00
2023/08/04,高雄市,三民區,同德里,6400500-052,120.312819276852,22.6419249641928,4.000,1,4.000,2,15.384,5,8.000,2,0.0000,4.00
2023/08/04,高雄市,三民區,達明里,6400500-049,120.305274145587,22.6445640862904,0.000,0,0.000,0,0.000,0,0.000,0,0.0000,0.00
2023/08/04,高雄市,左營區,聖西里,6400300-023,120.291795003856,22.6832908929295,2.000,1,2.000,1,12.500,4,4.000,2,0.0000,2.00
2023/08/04,高雄市,三民區,建東里,6400500-075,120.298154486909,22.6383547748627,0.000,0,0.000,0,0.000,0,0.000,0,0.0000,0.00
2023/08/04,高雄市,三民區,鼎強里,6400500-003,120.324974301843,22.6716094229418,2.000,1,2.000,1,3.333,2,8.000,2,0.0000,2.00
2023/08/04,高雄市,楠梓區,五常里,6400400-003,120.334754174345,22.7287993585894,0.000,0,0.000,0,0.000,0,0.000,0,0.0000,0.00
2023/08/04,高雄市,鼓山區,龍子里,6400200-015,120.298611957205,22.6561209147425,2.000,1,2.000,1,5.882,3,60.000,4,0.0000,2.00
2023/08/04,高雄市,左營區,福山里,6400300-044,120.31688893937,22.6853960803094,6.000,2,6.000,2,13.636,4,90.000,4,0.0000,6.00
2023/08/04,高雄市,仁武區,八卦里,6401700-009,120.336912597055,22.6852855841335,2.000,1,2.000,1,7.142,3,4.000,2,0.0000,2.00
2023/08/06,高雄市,楠梓區,國昌里,6400400-032,120.286820330139,22.7213391315667,0.000,0,0.000,0,0.000,0,0.000,0,0.0000,0.00
2023/08/06,高雄市,路竹區,社西里,6402400-006,120.262158013456,22.8682683385208,2.000,1,2.000,1,4.000,2,10.000,2,0.0000,2.00
2023/08/07,高雄市,三民區,鼎金里,6400500-001,120.331152673214,22.6669546360114,4.000,1,4.000,2,16.666,5,30.000,3,0.0000,4.00
2023/08/07,高雄市,楠梓區,翠屏里,6400400-014,120.303801786057,22.727704974475,0.000,0,0.000,0,0.000,0,0.000,0,0.0000,0.00
2023/08/07,高雄市,左營區,果貿里,6400300-036,120.288399956382,22.6712708099325,0.000,0,0.000,0,0.000,0,0.000,0,0.0000,0.00
2023/08/07,高雄市,旗津區,北汕里,6401000-008,120.275823975238,22.5969761150186,4.000,1,4.000,2,13.333,4,24.000,3,0.0000,4.00
2023/08/07,高雄市,前鎮區,盛興里,6400900-034,120.308280611369,22.6141207127801,0.000,0,0.000,0,0.000,0,0.000,0,0.0000,0.00
2023/08/07,高雄市,美濃區,龍山里,6403100-006,120.55897642487,22.8711176764711,2.000,1,2.000,1,1.351,1,10.000,2,0.0000,2.00
2023/08/07,高雄市,左營區,新中里,6400300-041,120.309405770329,22.6700290376611,9.230,2,9.230,3,12.500,4,64.615,4,0.0000,9.23
2023/08/07,高雄市,左營區,新上里,6400300-040,120.308224914317,22.6621251399324,5.357,2,5.357,2,8.450,3,25.000,3,0.0000,5.35
2023/08/07,高雄市,鼓山區,龍子里,6400200-015,120.298611957205,22.6561209147425,2.000,1,2.000,1,6.666,3,120.000,5,0.0000,2.00
2023/08/07,高雄市,鼓山區,裕興里,6400200-019,120.291715203756,22.669724250432,10.000,3,6.000,2,20.833,6,48.000,4,0.3800,10.00
2023/08/07,高雄市,楠梓區,宏毅里,6400400-016,120.307460687827,22.7156508071064,0.000,0,0.000,0,0.000,0,0.000,0,0.0000,0.00
2023/08/07,高雄市,楠梓區,加昌里,6400400-033,120.297198757136,22.7189554068796,0.000,0,0.000,0,0.000,0,0.000,0,0.0000,0.00
2023/08/07,高雄市,旗津區,復興里,6401000-005,120.272292334142,22.601454528497,4.000,1,2.000,1,11.764,4,10.000,2,0.0000,4.00
2023/08/07,高雄市,小港區,青島里,6401100-019,120.35547684809,22.5726079883811,12.000,3,8.000,3,17.142,5,74.000,4,0.0000,12.00
2023/08/07,高雄市,前鎮區,竹中里,6400900-045,120.320450183768,22.6140442357205,0.000,0,0.000,0,0.000,0,0.000,0,0.0000,0.00
2023/08/08,高雄市,小港區,青島里,6401100-019,120.35547684809,22.5726079883811,24.731,4,17.204,3,17.829,5,207.526,5,0.0322,24.73
2023/08/08,高雄市,小港區,濟南里,6401100-020,120.358973626891,22.572828591733,16.666,3,16.666,3,18.367,5,175.925,5,0.0000,16.66
2023/08/08,高雄市,苓雅區,苓東里,6400800-006,120.294722380972,22.6121388366317,4.000,1,4.000,2,8.695,3,12.000,3,0.0000,4.00
2023/08/08,高雄市,楠梓區,中和里,6400400-037,120.268885357471,22.7227306260075,0.000,0,0.000,0,0.000,0,0.000,0,0.0000,0.00
2023/08/08,高雄市,三民區,達德里,6400500-048,120.305161500359,22.6431798182893,4.000,1,4.000,2,13.333,4,12.000,3,0.0000,4.00
2023/08/08,高雄市,楠梓區,五常里,6400400-003,120.334754174345,22.7287993585894,0.000,0,0.000,0,0.000,0,0.000,0,0.0000,0.00
2023/08/08,高雄市,湖內區,田尾里,6402500-007,120.242183764997,22.8975334913651,4.000,1,4.000,2,6.666,3,8.000,2,0.0000,4.00
2023/08/08,高雄市,岡山區,台上里,6401900-020,120.297248303357,22.8087369772999,4.000,1,4.000,2,7.142,3,14.000,3,0.0000,4.00
2023/08/08,高雄市,前鎮區,振興里,6400900-031,120.303394990642,22.6097676473111,0.000,0,0.000,0,0.000,0,0.000,0,0.0000,0.00
2023/08/08,高雄市,苓雅區,苓中里,6400800-004,120.293739057542,22.6150596912151,0.000,0,0.000,0,0.000,0,0.000,0,0.0000,0.00
2023/08/08,高雄市,楠梓區,金田里,6400400-011,120.317053851054,22.7232234112516,1.960,1,1.960,1,2.564,2,3.921,2,0.0000,1.96
2023/08/08,高雄市,左營區,果貿里,6400300-036,120.288399956382,22.6712708099325,0.000,0,0.000,0,0.000,0,0.000,0,0.0000,0.00
2023/08/08,高雄市,楠梓區,興昌里,6400400-024,120.285040304515,22.7166977774198,1.960,1,1.960,1,2.631,2,3.921,2,0.0000,1.96
2023/08/09,高雄市,小港區,鳳宮里,6401100-009,120.35324960777,22.5476365758146,8.000,2,8.000,3,12.121,4,34.000,4,0.0000,8.00
2023/08/09,高雄市,苓雅區,廣澤里,6400800-015,120.305109246406,22.6157555837068,8.000,2,8.000,3,16.000,5,32.000,4,0.0000,8.00
2023/08/09,高雄市,前鎮區,盛豐里,6400900-035,120.310143501809,22.6135101094861,0.000,0,0.000,0,0.000,0,0.000,0,0.0000,0.00
2023/08/09,高雄市,鳳山區,鳳東里,6401200-035,120.382086973031,22.6264501077762,4.000,1,4.000,2,9.090,3,30.000,3,0.0000,4.00
2023/08/09,高雄市,湖內區,葉厝里,6402500-005,120.218703709497,22.907493961642,6.000,2,4.000,2,7.500,3,60.000,4,0.0000,6.00
2023/08/09,高雄市,左營區,菜公里,6400300-043,120.31178326346,22.6780117583188,12.000,3,8.000,3,16.216,5,24.000,3,0.0000,12.00
2023/08/09,高雄市,左營區,福山里,6400300-044,120.31688893937,22.6853960803094,0.000,0,0.000,0,0.000,0,0.000,0,0.0000,0.00
2023/08/09,高雄市,鼓山區,龍子里,6400200-015,120.298611957205,22.6561209147425,5.769,2,2.884,1,7.500,3,24.038,3,0.0000,5.76
2023/08/09,高雄市,楠梓區,藍田里,6400400-035,120.286481093465,22.7306550791694,1.960,1,1.960,1,3.333,2,7.843,2,0.0000,1.96
2023/08/09,高雄市,小港區,濟南里,6401100-020,120.358973626891,22.572828591733,18.518,3,16.666,3,37.037,8,300.000,5,0.0000,18.51
2023/08/09,高雄市,苓雅區,普天里,6400800-022,120.315519027843,22.6193034308991,4.000,1,4.000,2,11.111,4,30.000,3,0.0000,4.00
2023/08/10,高雄市,小港區,山東里,6401100-018,120.34942631103,22.5728271947674,4.000,1,4.000,2,9.090,3,16.000,3,0.0000,4.00
2023/08/10,高雄市,鼓山區,龍井里,6400200-010,120.266543013437,22.657733990878,2.000,1,2.000,1,6.250,3,10.000,2,0.0000,2.00
2023/08/10,高雄市,鼓山區,平和里,6400200-012,120.277677872996,22.651327682128,6.000,2,6.000,2,13.636,4,46.000,4,0.0000,6.00
2023/08/10,高雄市,三民區,長明里,6400500-074,120.305070076565,22.6385025886052,0.000,0,0.000,0,0.000,0,0.000,0,0.0000,0.00
2023/08/10,高雄市,鼓山區,裕興里,6400200-019,120.291715203756,22.669724250432,2.000,1,2.000,1,12.500,4,4.000,2,0.0000,2.00
2023/08/10,高雄市,左營區,新中里,6400300-041,120.309405770329,22.6700290376611,0.000,0,0.000,0,0.000,0,0.000,0,0.0000,0.00
2023/08/10,高雄市,左營區,新中里,6400300-041,120.309405770329,22.6700290376611,0.000,0,0.000,0,0.000,0,0.000,0,0.0000,0.00
2023/08/10,高雄市,左營區,新上里,6400300-040,120.308224914317,22.6621251399324,2.000,1,2.000,1,3.703,2,20.000,3,0.0000,2.00
2023/08/10,高雄市,前鎮區,忠孝里,6400900-038,120.314325740597,22.6152656942116,0.000,0,0.000,0,0.000,0,0.000,0,0.0000,0.00
2023/08/10,高雄市,前鎮區,草衙里,6400900-001,120.3239204207,22.5728145437726,0.000,0,0.000,0,0.000,0,0.000,0,0.0000,0.00
2023/08/10,高雄市,前鎮區,平等里,6400900-007,120.320563775756,22.5880472807576,0.000,0,0.000,0,0.000,0,0.000,0,0.0000,0.00
2023/08/10,高雄市,左營區,尾北里,6400300-009,120.302673128867,22.6877706917203,0.000,0,0.000,0,0.000,0,0.000,0,0.0000,0.00
2023/08/10,高雄市,鼓山區,光榮里,6400200-004,120.280873671054,22.6581136544849,8.000,2,6.000,2,33.333,8,70.000,4,0.0800,8.00
2023/08/10,高雄市,鼓山區,鼓岩里,6400200-021,120.272750981554,22.6411566815614,12.000,3,8.000,3,23.076,6,90.000,4,0.0000,12.00
2023/08/10,高雄市,鼓山區,正德里,6400200-011,120.269435481657,22.6490200829927,12.000,3,6.000,2,20.000,5,124.000,5,0.0000,12.00
2023/08/10,高雄市,左營區,新下里,6400300-039,120.299510729206,22.6711867566794,2.000,1,2.000,1,11.111,4,8.000,2,0.0000,2.00
2023/08/10,高雄市,左營區,新下里,6400300-039,120.299510729206,22.6711867566794,0.000,0,0.000,0,0.000,0,0.000,0,0.0000,0.00
2023/08/10,高雄市,楠梓區,清豐里,6400400-001,120.331135228679,22.7441569161639,0.000,0,0.000,0,0.000,0,0.000,0,0.0000,0.00
2023/08/10,高雄市,楠梓區,金田里,6400400-011,120.317053851054,22.7232234112516,0.000,0,0.000,0,0.000,0,0.000,0,0.0000,0.00
2023/08/10,高雄市,鼓山區,興宗里,6400200-024,120.27674031661,22.6356480781398,6.000,2,4.000,2,6.976,3,60.000,4,0.0000,6.00
2023/08/10,高雄市,鳳山區,協和里,6401200-047,120.349093009453,22.6227855928453,2.000,1,2.000,1,6.666,3,10.000,2,0.0000,2.00
2023/08/11,高雄市,湖內區,公舘里,6402500-004,120.226852398235,22.9041562162229,12.000,3,6.000,2,14.285,4,78.000,4,0.0000,12.00
2023/08/11,高雄市,楠梓區,翠屏里,6400400-014,120.303801786057,22.727704974475,0.000,0,0.000,0,0.000,0,0.000,0,0.0000,0.00
2023/08/11,高雄市,左營區,新下里,6400300-039,120.299510729206,22.6711867566794,10.000,3,8.000,3,22.727,6,106.000,5,0.0000,10.00
2023/08/11,高雄市,左營區,新下里,6400300-039,120.299510729206,22.6711867566794,0.000,0,0.000,0,0.000,0,0.000,0,0.0000,0.00
2023/08/11,高雄市,三民區,十美里,6400500-064,120.296374446024,22.643802393364,0.000,0,0.000,0,0.000,0,0.000,0,0.0000,0.00
2023/08/11,高雄市,旗津區,北汕里,6401000-008,120.275823975238,22.5969761150186,16.000,3,10.000,3,24.242,6,162.000,5,0.0800,16.00
2023/08/11,高雄市,小港區,大苓里,6401100-011,120.347369124471,22.5684445822775,18.000,3,12.000,3,40.909,9,250.000,5,0.0000,18.00
2023/08/11,高雄市,小港區,正苓里,6401100-014,120.352857008023,22.5679807455888,14.000,3,10.000,3,30.434,7,94.000,4,0.0000,14.00
2023/08/11,高雄市,旗津區,永安里,6401000-002,120.26646295186,22.6118079890027,2.000,1,2.000,1,4.166,2,10.000,2,0.0000,2.00
2023/08/12,高雄市,小港區,濟南里,6401100-020,120.358973626891,22.572828591733,4.000,1,4.000,2,10.526,4,20.000,3,0.0000,4.00
2023/08/12,高雄市,小港區,青島里,6401100-019,120.35547684809,22.5726079883811,2.000,1,2.000,1,5.263,2,12.000,3,0.0000,2.00
2023/08/12,高雄市,三民區,安生里,6400500-055,120.311403954237,22.6469513158604,6.000,2,6.000,2,14.285,4,22.000,3,0.0000,6.00
2023/08/12,高雄市,梓官區,信蚵里,6402900-009,120.254799027892,22.7251852952101,18.000,3,10.000,3,29.032,7,138.000,5,0.0000,18.00
2023/08/12,高雄市,三民區,十美里,6400500-064,120.296374446024,22.643802393364,4.000,1,4.000,2,6.451,3,46.000,4,0.0000,4.00
2023/08/12,高雄市,楠梓區,錦屏里,6400400-009,120.31180873815,22.7167725765024,0.000,0,0.000,0,0.000,0,0.000,0,0.0000,0.00
2023/08/12,高雄市,楠梓區,清豐里,6400400-001,120.331135228679,22.7441569161639,0.000,0,0.000,0,0.000,0,0.000,0,0.0000,0.00
2023/08/12,高雄市,鳳山區,協和里,6401200-047,120.349093009453,22.6227855928453,2.000,1,2.000,1,5.882,3,10.000,2,0.0000,2.00
2023/08/13,高雄市,左營區,新下里,6400300-039,120.299510729206,22.6711867566794,4.000,1,4.000,2,11.764,4,24.000,3,0.0000,4.00
2023/08/13,高雄市,梓官區,梓義里,6402900-002,120.259547521735,22.7608340225473,4.000,1,4.000,2,5.555,3,8.000,2,0.0000,4.00
2023/08/13,高雄市,梓官區,梓信里,6402900-001,120.26119235331,22.7659786753388,7.407,2,7.407,2,8.000,3,59.259,4,0.2407,7.40
2023/08/13,高雄市,左營區,福山里,6400300-044,120.31688893937,22.6853960803094,2.000,1,2.000,1,3.846,2,12.000,3,0.0200,2.00
2023/08/14,高雄市,左營區,福山里,6400300-044,120.31688893937,22.6853960803094,2.000,1,2.000,1,20.000,5,6.000,2,0.0000,2.00
2023/08/14,高雄市,彌陀區,南寮里,6402800-012,120.241124577993,22.7570341396127,28.000,4,14.000,3,51.851,9,408.000,6,0.0000,28.00
2023/08/14,高雄市,楠梓區,慶昌里,6400400-028,120.29829017719,22.7104281102693,0.000,0,0.000,0,0.000,0,0.000,0,0.0000,0.00
2023/08/14,高雄市,楠梓區,錦屏里,6400400-009,120.31180873815,22.7167725765024,0.000,0,0.000,0,0.000,0,0.000,0,0.0000,0.00
2023/08/14,高雄市,前鎮區,草衙里,6400900-001,120.3239204207,22.5728145437726,0.000,0,0.000,0,0.000,0,0.000,0,0.0000,0.00
2023/08/14,高雄市,前鎮區,明孝里,6400900-002,120.317849157573,22.5703852900333,0.000,0,0.000,0,0.000,0,0.000,0,0.0000,0.00
2023/08/14,高雄市,鳳山區,協和里,6401200-047,120.349093009453,22.6227855928453,2.000,1,2.000,1,5.555,3,50.000,4,0.0000,2.00
2023/08/14,高雄市,岡山區,潭底里,6401900-014,120.301211220451,22.8331620634447,16.000,3,14.000,3,40.000,8,220.000,5,0.0000,16.00
2023/08/14,高雄市,茄萣區,嘉安里,6402600-005,120.187720386071,22.901798336654,6.000,2,4.000,2,12.000,4,40.000,4,0.0000,6.00
2023/08/15,高雄市,湖內區,中賢里,6402500-011,120.202927581814,22.9010023219527,4.000,1,4.000,2,11.111,4,28.000,3,0.0200,4.00
2023/08/15,高雄市,前鎮區,明孝里,6400900-002,120.317849157573,22.5703852900333,4.000,1,4.000,2,15.384,5,34.000,4,0.0000,4.00
2023/08/15,高雄市,三民區,港東里,6400500-068,120.305497595642,22.6370679627055,0.000,0,0.000,0,0.000,0,0.000,0,0.0000,0.00
2023/08/15,高雄市,前鎮區,振興里,6400900-031,120.303394990642,22.6097676473111,4.000,1,2.000,1,14.285,4,100.000,4,0.0000,4.00
2023/08/15,高雄市,前金區,東金里,6400700-005,120.294273887159,22.6307538911318,2.000,1,2.000,1,5.555,3,8.000,2,0.0000,2.00
2023/08/15,高雄市,旗津區,振興里,6401000-003,120.270350586272,22.6120357318515,4.000,1,2.000,1,14.285,4,100.000,4,0.0000,4.00
2023/08/15,高雄市,梓官區,梓義里,6402900-002,120.259547521735,22.7608340225473,2.000,1,2.000,1,5.555,3,40.000,4,0.0000,2.00
2023/08/15,高雄市,鼓山區,龍水里,6400200-016,120.28716916228,22.6565980725784,4.000,1,2.000,1,12.500,4,16.000,3,0.3200,4.00
2023/08/15,高雄市,左營區,新下里,6400300-039,120.299510729206,22.6711867566794,4.000,1,4.000,2,14.285,4,16.000,3,0.0000,4.00
2023/08/15,高雄市,楠梓區,清豐里,6400400-001,120.331135228679,22.7441569161639,0.000,0,0.000,0,0.000,0,0.000,0,0.0000,0.00
2023/08/15,高雄市,楠梓區,宏榮里,6400400-017,120.303032531577,22.712745754713,0.000,0,0.000,0,0.000,0,0.000,0,0.0000,0.00
2023/08/15,高雄市,梓官區,梓信里,6402900-001,120.26119235331,22.7659786753388,2.000,1,2.000,1,4.545,2,4.000,2,0.1000,2.00
2023/08/15,高雄市,三民區,德智里,6400500-053,120.309492042755,22.6435973196978,2.000,1,2.000,1,5.555,3,4.000,2,0.0000,2.00
2023/08/15,高雄市,小港區,青島里,6401100-019,120.35547684809,22.5726079883811,3.787,1,3.787,2,9.090,3,51.515,4,0.0000,3.78
2023/08/15,高雄市,小港區,青島里,6401100-019,120.35547684809,22.5726079883811,0.000,0,0.000,0,0.000,0,0.000,0,0.0000,0.00
2023/08/15,高雄市,左營區,新中里,6400300-041,120.309405770329,22.6700290376611,0.000,0,0.000,0,0.000,0,0.000,0,0.0000,0.00
2023/08/15,高雄市,鼓山區,麗興里,6400200-031,120.279801999859,22.6186603577359,8.000,2,8.000,3,19.047,5,78.000,4,0.0000,8.00
2023/08/16,高雄市,左營區,新中里,6400300-041,120.309405770329,22.6700290376611,4.000,1,4.000,2,11.111,4,20.000,3,0.0000,4.00
2023/08/16,高雄市,左營區,菜公里,6400300-043,120.31178326346,22.6780117583188,8.000,2,6.000,2,13.793,4,72.000,4,0.0600,8.00
2023/08/16,高雄市,鳥松區,鳥松里,6401800-001,120.360028978033,22.6594491429391,5.882,2,5.882,2,13.636,4,19.607,3,0.0000,5.88
2023/08/16,高雄市,小港區,青島里,6401100-019,120.35547684809,22.5726079883811,2.000,1,2.000,1,3.448,2,16.000,3,0.0000,2.00
2023/08/16,高雄市,三民區,安東里,6400500-046,120.307074723221,22.6494110726353,0.000,0,0.000,0,0.000,0,0.000,0,0.0000,0.00
2023/08/16,高雄市,三民區,鳳南里,6400500-077,120.292402338236,22.6355979409433,4.000,1,4.000,2,11.111,4,16.000,3,0.0000,4.00
2023/08/16,高雄市,三民區,灣愛里,6400500-032,120.319613193373,22.6590415789439,4.000,1,4.000,2,10.000,4,8.000,2,0.0000,4.00
2023/08/16,高雄市,左營區,新下里,6400300-039,120.299510729206,22.6711867566794,6.000,2,4.000,2,10.169,4,30.000,3,0.0000,6.00
2023/08/16,高雄市,左營區,新下里,6400300-039,120.299510729206,22.6711867566794,0.000,0,0.000,0,0.000,0,0.000,0,0.0000,0.00
2023/08/16,高雄市,楠梓區,國昌里,6400400-032,120.286820330139,22.7213391315667,0.000,0,0.000,0,0.000,0,0.000,0,0.0000,0.00
2023/08/16,高雄市,三民區,達明里,6400500-049,120.305274145587,22.6445640862904,0.000,0,0.000,0,0.000,0,0.000,0,0.0000,0.00
2023/08/16,高雄市,三民區,博愛里,6400500-072,120.310230151555,22.6383802780552,2.000,1,2.000,1,5.555,3,6.000,2,0.0000,2.00
2023/08/16,高雄市,前鎮區,草衙里,6400900-001,120.3239204207,22.5728145437726,0.000,0,0.000,0,0.000,0,0.000,0,0.0000,0.00
2023/08/16,高雄市,林園區,頂厝里,6401300-007,120.380634159787,22.5028241639091,12.000,3,10.000,3,24.000,6,192.000,5,0.1200,12.00
2023/08/16,高雄市,仁武區,五和里,6401700-013,120.330816272544,22.6953231352959,39.622,5,26.415,4,56.756,9,481.132,6,0.0000,39.62
2023/08/17,高雄市,岡山區,華崗里,6401900-028,120.326123934658,22.8217803883122,18.000,3,12.000,3,34.615,8,78.000,4,0.0200,18.00
2023/08/17,高雄市,三民區,港東里,6400500-068,120.305497595642,22.6370679627055,0.000,0,0.000,0,0.000,0,0.000,0,0.0000,0.00
2023/08/17,高雄市,三民區,十美里,6400500-064,120.296374446024,22.643802393364,0.000,0,0.000,0,0.000,0,0.000,0,0.0000,0.00
2023/08/17,高雄市,三民區,安宜里,6400500-060,120.296919111988,22.6499656887844,2.000,1,2.000,1,6.250,3,2.000,1,0.0000,2.00
2023/08/17,高雄市,楠梓區,慶昌里,6400400-028,120.29829017719,22.7104281102693,0.000,0,0.000,0,0.000,0,0.000,0,0.0000,0.00
2023/08/17,高雄市,鼓山區,正德里,6400200-011,120.269435481657,22.6490200829927,0.000,0,0.000,0,0.000,0,0.000,0,0.0000,0.00
2023/08/17,高雄市,楠梓區,清豐里,6400400-001,120.331135228679,22.7441569161639,0.000,0,0.000,0,0.000,0,0.000,0,0.0000,0.00
2023/08/17,高雄市,梓官區,信蚵里,6402900-009,120.254799027892,22.7251852952101,4.000,1,4.000,2,5.714,3,18.000,3,0.0000,4.00
2023/08/17,高雄市,三民區,德智里,6400500-053,120.309492042755,22.6435973196978,2.000,1,2.000,1,5.882,3,8.000,2,0.0000,2.00
2023/08/17,高雄市,三民區,達仁里,6400500-050,120.30504751018,22.6417965495071,2.000,1,2.000,1,5.882,3,10.000,2,0.0000,2.00
2023/08/17,高雄市,三民區,精華里,6400500-058,120.299997793979,22.6421541313308,0.000,0,0.000,0,0.000,0,0.000,0,0.0000,0.00
2023/08/17,高雄市,林園區,五福里,6401300-023,120.411329477876,22.4961775135797,14.000,3,14.000,3,15.555,5,74.000,4,0.0000,14.00
2023/08/17,高雄市,左營區,新中里,6400300-041,120.309405770329,22.6700290376611,0.000,0,0.000,0,0.000,0,0.000,0,0.0000,0.00
2023/08/18,高雄市,左營區,新中里,6400300-041,120.309405770329,22.6700290376611,0.000,0,0.000,0,0.000,0,0.000,0,0.0000,0.00
2023/08/18,高雄市,仁武區,仁武里,6401700-006,120.345364183622,22.6988769470742,14.000,3,14.000,3,24.137,6,180.000,5,0.0000,14.00
2023/08/18,高雄市,鳳山區,新強里,6401200-033,120.341365282297,22.6171981687649,20.000,4,12.000,3,35.714,8,260.000,5,0.0200,20.00
2023/08/18,高雄市,前鎮區,瑞西里,6400900-055,120.326637716724,22.6065774625947,0.000,0,0.000,0,0.000,0,0.000,0,0.0000,0.00
2023/08/18,高雄市,三民區,達勇里,6400500-051,120.304497019351,22.640280024862,0.000,0,0.000,0,0.000,0,0.000,0,0.0000,0.00
2023/08/18,高雄市,小港區,宏亮里,6401100-017,120.361481113147,22.5682658318148,0.000,0,0.000,0,0.000,0,0.000,0,0.0000,0.00
2023/08/18,高雄市,小港區,正苓里,6401100-014,120.352857008023,22.5679807455888,0.000,0,0.000,0,0.000,0,0.000,0,0.0000,0.00
2023/08/18,高雄市,小港區,大苓里,6401100-011,120.347369124471,22.5684445822775,0.000,0,0.000,0,0.000,0,0.000,0,0.0000,0.00
2023/08/18,高雄市,梓官區,梓信里,6402900-001,120.26119235331,22.7659786753388,6.000,2,4.000,2,16.666,5,30.000,3,0.0000,6.00
2023/08/18,高雄市,梓官區,中崙里,6402900-005,120.272896040515,22.7614047426822,26.000,4,12.000,3,48.148,9,374.000,6,0.3400,26.00
2023/08/18,高雄市,鼓山區,厚生里,6400200-014,120.279414571287,22.6464193893687,16.000,3,16.000,3,21.052,6,140.000,5,1.3600,16.00
2023/08/18,高雄市,三民區,建東里,6400500-075,120.298154486909,22.6383547748627,2.000,1,2.000,1,4.545,2,2.000,1,0.0000,2.00
2023/08/18,高雄市,鼓山區,平和里,6400200-012,120.277677872996,22.651327682128,4.000,1,4.000,2,13.333,4,16.000,3,0.0000,4.00
2023/08/18,高雄市,楠梓區,中興里,6400400-036,120.280801579909,22.7247471071483,0.000,0,0.000,0,0.000,0,0.000,0,0.0000,0.00
2023/08/18,高雄市,楠梓區,金田里,6400400-011,120.317053851054,22.7232234112516,0.000,0,0.000,0,0.000,0,0.000,0,0.0000,0.00
2023/08/18,高雄市,鼓山區,光榮里,6400200-004,120.280873671054,22.6581136544849,2.000,1,2.000,1,5.000,2,10.000,2,0.0000,2.00
2023/08/18,高雄市,梓官區,梓義里,6402900-002,120.259547521735,22.7608340225473,14.000,3,6.000,2,35.000,8,108.000,5,0.0400,14.00
2023/08/18,高雄市,楠梓區,興昌里,6400400-024,120.285040304515,22.7166977774198,0.000,0,0.000,0,0.000,0,0.000,0,0.0000,0.00
2023/08/18,高雄市,旗津區,北汕里,6401000-008,120.275823975238,22.5969761150186,0.000,0,0.000,0,0.000,0,0.000,0,0.0000,0.00
2023/08/18,高雄市,三民區,豐裕里,6400500-081,120.289629420375,22.639167350341,6.000,2,6.000,2,9.375,3,44.000,4,0.0000,6.00
2023/08/18,高雄市,三民區,港新里,6400500-069,120.314544134383,22.6356521965708,4.000,1,4.000,2,8.695,3,18.000,3,0.0000,4.00
2023/08/18,高雄市,仁武區,五和里,6401700-013,120.330816272544,22.6953231352959,2.000,1,2.000,1,5.882,3,4.000,2,0.0000,2.00
2023/08/18,高雄市,湖內區,公舘里,6402500-004,120.226852398235,22.9041562162229,4.000,1,4.000,2,9.090,3,16.000,3,0.0000,4.00
2023/08/19,高雄市,三民區,安發里,6400500-045,120.321273318774,22.6408244010109,20.000,4,16.000,3,33.333,8,136.000,5,0.0000,20.00
2023/08/19,高雄市,梓官區,梓信里,6402900-001,120.26119235331,22.7659786753388,2.000,1,2.000,1,7.407,3,32.000,4,0.0200,2.00
2023/08/19,高雄市,鳳山區,新強里,6401200-033,120.341365282297,22.6171981687649,16.216,3,12.162,3,23.529,6,79.729,4,0.0000,16.21
2023/08/19,高雄市,湖內區,葉厝里,6402500-005,120.218703709497,22.907493961642,18.000,3,16.000,3,45.000,9,168.000,5,0.0400,18.00
2023/08/19,高雄市,左營區,新中里,6400300-041,120.309405770329,22.6700290376611,4.000,1,4.000,2,8.695,3,10.000,2,0.0000,4.00
2023/08/20,高雄市,鳳山區,二甲里,6401200-072,120.340365194283,22.5967376032008,27.450,4,19.607,4,33.333,8,170.588,5,0.1568,27.45
2023/08/20,高雄市,左營區,新下里,6400300-039,120.299510729206,22.6711867566794,10.000,3,8.000,3,17.857,5,82.000,4,0.0200,10.00
2023/08/20,高雄市,鳳山區,正義里,6401200-027,120.34031583266,22.6028596555928,12.000,3,8.000,3,16.666,5,64.000,4,0.0200,12.00
2023/08/20,高雄市,鳳山區,文德里,6401200-039,120.350936651088,22.6438998029759,6.000,2,6.000,2,11.111,4,88.000,4,0.0000,6.00
2023/08/21,高雄市,岡山區,潭底里,6401900-014,120.301211220451,22.8331620634447,6.000,2,6.000,2,10.000,4,32.000,4,0.0000,6.00
2023/08/21,高雄市,林園區,頂厝里,6401300-007,120.380634159787,22.5028241639091,0.000,0,0.000,0,0.000,0,0.000,0,0.0000,0.00
2023/08/21,高雄市,楠梓區,和昌里,6400400-027,120.294613167624,22.7084680672459,1.960,1,1.960,1,3.571,2,9.803,2,0.0000,1.96
2023/08/21,高雄市,前鎮區,振興里,6400900-031,120.303394990642,22.6097676473111,2.000,1,2.000,1,6.666,3,8.000,2,0.0000,2.00
2023/08/21,高雄市,苓雅區,和煦里,6400800-020,120.309034651,22.6205365306805,6.000,2,6.000,2,13.043,4,86.000,4,0.0000,6.00
2023/08/21,高雄市,三民區,十全里,6400500-063,120.29356926461,22.6440138177109,2.000,1,2.000,1,7.142,3,6.000,2,0.0000,2.00
2023/08/21,高雄市,岡山區,仁壽里,6401900-016,120.286713300141,22.7917090530125,14.000,3,12.000,3,28.000,7,84.000,4,0.0200,14.00
2023/08/21,高雄市,林園區,五福里,6401300-023,120.411329477876,22.4961775135797,0.000,0,0.000,0,0.000,0,0.000,0,0.0000,0.00
2023/08/21,高雄市,左營區,福山里,6400300-044,120.31688893937,22.6853960803094,0.000,0,0.000,0,0.000,0,0.000,0,0.0000,0.00
2023/08/21,高雄市,彌陀區,南寮里,6402800-012,120.241124577993,22.7570341396127,4.000,1,4.000,2,13.333,4,12.000,3,0.0000,4.00
2023/08/21,高雄市,三民區,安東里,6400500-046,120.307074723221,22.6494110726353,0.000,0,0.000,0,0.000,0,0.000,0,0.0000,0.00
2023/08/21,高雄市,小港區,順苓里,6401100-015,120.356551896071,22.5676249078958,6.000,2,6.000,2,13.636,4,32.000,4,0.0000,6.00
2023/08/21,高雄市,苓雅區,中正里,6400800-033,120.317119646908,22.626219134593,8.000,2,6.000,2,14.814,5,36.000,4,0.0600,8.00
2023/08/22,高雄市,小港區,順苓里,6401100-015,120.356551896071,22.5676249078958,6.315,2,6.315,2,12.244,4,62.105,4,0.0000,6.31
2023/08/22,高雄市,小港區,宏亮里,6401100-017,120.361481113147,22.5682658318148,24.000,4,18.000,4,52.173,9,270.000,5,0.0000,24.00
2023/08/22,高雄市,前鎮區,鎮陽里,6400900-020,120.30874566653,22.5915385353213,0.000,0,0.000,0,0.000,0,0.000,0,0.0000,0.00
2023/08/22,高雄市,路竹區,社南里,6402400-020,120.269457405842,22.855968652796,6.000,2,4.000,2,14.285,4,120.000,5,0.1000,6.00
2023/08/22,高雄市,左營區,合群里,6400300-017,120.289013065881,22.7006170847727,2.000,1,2.000,1,7.142,3,16.000,3,0.0000,2.00
2023/08/22,高雄市,楠梓區,仁昌里,6400400-034,120.294119259652,22.7235703036406,1.960,1,1.960,1,2.439,1,3.921,2,0.0000,1.96
2023/08/22,高雄市,鼓山區,平和里,6400200-012,120.277677872996,22.651327682128,8.000,2,8.000,3,21.052,6,38.000,4,0.0000,8.00
2023/08/22,高雄市,楠梓區,加昌里,6400400-033,120.297198757136,22.7189554068796,0.000,0,0.000,0,0.000,0,0.000,0,0.0000,0.00
2023/08/22,高雄市,左營區,福山里,6400300-044,120.31688893937,22.6853960803094,0.000,0,0.000,0,0.000,0,0.000,0,0.0000,0.00
2023/08/22,高雄市,左營區,福山里,6400300-044,120.31688893937,22.6853960803094,6.000,2,6.000,2,11.111,4,10.000,2,0.0000,6.00
2023/08/22,高雄市,左營區,新上里,6400300-040,120.308224914317,22.6621251399324,8.000,2,8.000,3,14.035,4,67.000,4,0.0300,8.00
2023/08/22,高雄市,前鎮區,盛豐里,6400900-035,120.310143501809,22.6135101094861,0.000,0,0.000,0,0.000,0,0.000,0,0.0000,0.00
2023/08/22,高雄市,前鎮區,草衙里,6400900-001,120.3239204207,22.5728145437726,0.000,0,0.000,0,0.000,0,0.000,0,0.0000,0.00
2023/08/22,高雄市,三民區,鼎西里,6400500-005,120.324835266911,22.6626096574435,12.000,3,10.000,3,22.222,6,84.000,4,0.0600,12.00
2023/08/22,高雄市,左營區,新下里,6400300-039,120.299510729206,22.6711867566794,4.000,1,4.000,2,13.793,4,26.000,3,0.0000,4.00
2023/08/23,高雄市,左營區,新下里,6400300-039,120.299510729206,22.6711867566794,4.000,1,4.000,2,9.090,3,24.000,3,0.0400,4.00
2023/08/23,高雄市,左營區,新下里,6400300-039,120.299510729206,22.6711867566794,0.000,0,0.000,0,0.000,0,0.000,0,0.0000,0.00
2023/08/23,高雄市,左營區,新光里,6400300-042,120.303010946861,22.6773485555155,10.000,3,9.000,3,27.777,7,45.000,4,0.0000,10.00
2023/08/23,高雄市,鼓山區,登山里,6400200-029,120.276282449635,22.6277915546879,10.000,3,10.000,3,50.000,9,190.000,5,0.0000,10.00
2023/08/23,高雄市,楠梓區,翠屏里,6400400-014,120.303801786057,22.727704974475,1.960,1,1.960,1,2.941,2,3.921,2,0.0000,1.96
2023/08/23,高雄市,鼓山區,鼓岩里,6400200-021,120.272750981554,22.6411566815614,6.000,2,6.000,2,17.647,5,50.000,4,0.0000,6.00
2023/08/23,高雄市,鹽埕區,教仁里,6400100-006,120.28052222378,22.6260344293701,0.000,0,0.000,0,0.000,0,0.000,0,0.0000,0.00
2023/08/23,高雄市,岡山區,華崗里,6401900-028,120.326123934658,22.8217803883122,2.000,1,2.000,1,8.333,3,4.000,2,0.0000,2.00
2023/08/23,高雄市,左營區,新中里,6400300-041,120.309405770329,22.6700290376611,6.000,2,6.000,2,20.000,5,46.000,4,0.0000,6.00
2023/08/23,高雄市,鳳山區,二甲里,6401200-072,120.340365194283,22.5967376032008,8.000,2,4.000,2,23.529,6,52.000,4,0.0000,8.00
2023/08/23,高雄市,三民區,鳳南里,6400500-077,120.292402338236,22.6355979409433,2.000,1,2.000,1,6.666,3,6.000,2,0.0000,2.00
2023/08/23,高雄市,楠梓區,惠豐里,6400400-008,120.317150589023,22.730144227767,0.000,0,0.000,0,0.000,0,0.000,0,0.0000,0.00
2023/08/23,高雄市,小港區,順苓里,6401100-015,120.356551896071,22.5676249078958,0.000,0,0.000,0,0.000,0,0.000,0,0.0000,0.00
2023/08/23,高雄市,三民區,德東里,6400500-056,120.298460625536,22.6436534340549,0.000,0,0.000,0,0.000,0,0.000,0,0.0000,0.00
2023/08/24,高雄市,小港區,順苓里,6401100-015,120.356551896071,22.5676249078958,6.000,2,6.000,2,23.076,6,58.000,4,0.2000,6.00
2023/08/24,高雄市,小港區,順苓里,6401100-015,120.356551896071,22.5676249078958,0.000,0,0.000,0,0.000,0,0.000,0,0.0000,0.00
2023/08/24,高雄市,楠梓區,玉屏里,6400400-010,120.314892076767,22.7153875157098,12.000,3,12.000,3,25.000,6,58.000,4,0.0200,12.00
2023/08/24,高雄市,三民區,建東里,6400500-075,120.298154486909,22.6383547748627,0.000,0,0.000,0,0.000,0,0.000,0,0.0000,0.00
2023/08/24,高雄市,岡山區,仁壽里,6401900-016,120.286713300141,22.7917090530125,2.000,1,2.000,1,6.250,3,6.000,2,0.0000,2.00
2023/08/24,高雄市,左營區,新上里,6400300-040,120.308224914317,22.6621251399324,0.000,0,0.000,0,0.000,0,0.000,0,0.0000,0.00
2023/08/24,高雄市,左營區,福山里,6400300-044,120.31688893937,22.6853960803094,3.000,1,2.000,1,7.692,3,10.000,2,0.0000,3.00
2023/08/24,高雄市,鳳山區,瑞竹里,6401200-018,120.370193465235,22.6258774889932,18.000,3,18.000,4,32.142,8,182.000,5,0.1000,18.00
2023/08/24,高雄市,楠梓區,興昌里,6400400-024,120.285040304515,22.7166977774198,0.000,0,0.000,0,0.000,0,0.000,0,0.0000,0.00
2023/08/24,高雄市,三民區,安發里,6400500-045,120.321273318774,22.6408244010109,0.000,0,0.000,0,0.000,0,0.000,0,0.0000,0.00
2023/08/24,高雄市,左營區,新下里,6400300-039,120.299510729206,22.6711867566794,2.000,1,2.000,1,4.347,2,18.000,3,0.0000,2.00
2023/08/24,高雄市,前鎮區,忠孝里,6400900-038,120.314325740597,22.6152656942116,0.000,0,0.000,0,0.000,0,0.000,0,0.0000,0.00
2023/08/24,高雄市,楠梓區,錦屏里,6400400-009,120.31180873815,22.7167725765024,18.000,3,10.000,3,39.130,8,200.000,5,0.0000,18.00
2023/08/24,高雄市,苓雅區,日中里,6400800-018,120.309180218511,22.6171847743391,10.000,3,10.000,3,29.411,7,72.000,4,0.0000,10.00
2023/08/25,高雄市,三民區,同德里,6400500-052,120.312819276852,22.6419249641928,2.000,1,2.000,1,9.090,3,4.000,2,0.0000,2.00
2023/08/25,高雄市,左營區,新光里,6400300-042,120.303010946861,22.6773485555155,0.000,0,0.000,0,0.000,0,0.000,0,0.0000,0.00
2023/08/25,高雄市,楠梓區,東寧里,6400400-002,120.329525796606,22.7332760887877,3.921,1,3.921,2,6.896,3,9.803,2,0.0000,3.92
2023/08/25,高雄市,楠梓區,興昌里,6400400-024,120.285040304515,22.7166977774198,1.960,1,1.960,1,2.777,2,3.921,2,0.0000,1.96
2023/08/25,高雄市,大寮區,後庄里,6401400-010,120.390620367398,22.6379205771949,4.000,1,4.000,2,14.285,4,46.000,4,0.0000,4.00
2023/08/25,高雄市,鼓山區,龍水里,6400200-016,120.28716916228,22.6565980725784,6.000,2,6.000,2,18.750,5,12.000,3,0.0000,6.00
2023/08/25,高雄市,梓官區,梓義里,6402900-002,120.259547521735,22.7608340225473,2.000,1,2.000,1,4.545,2,4.000,2,0.0000,2.00
2023/08/25,高雄市,湖內區,葉厝里,6402500-005,120.218703709497,22.907493961642,2.000,1,2.000,1,5.263,2,6.000,2,0.0000,2.00
2023/08/25,高雄市,鳳山區,忠孝里,6401200-044,120.347462585239,22.6310855088349,6.000,2,4.000,2,14.285,4,42.000,4,0.0200,6.00
2023/08/25,高雄市,鳳山區,新強里,6401200-033,120.341365282297,22.6171981687649,8.000,2,2.000,1,9.523,4,18.000,3,0.0200,8.00
2023/08/25,高雄市,楠梓區,藍田里,6400400-035,120.286481093465,22.7306550791694,1.960,1,1.960,1,2.857,2,9.803,2,0.0000,1.96
2023/08/25,高雄市,梓官區,中崙里,6402900-005,120.272896040515,22.7614047426822,2.000,1,2.000,1,5.000,2,6.000,2,0.0000,2.00
2023/08/25,高雄市,前鎮區,鎮陽里,6400900-020,120.30874566653,22.5915385353213,0.000,0,0.000,0,0.000,0,0.000,0,0.0000,0.00
2023/08/26,高雄市,鼓山區,明誠里,6400200-017,120.297928763669,22.6634651243903,10.000,3,6.000,2,15.151,5,52.000,4,0.0000,10.00
2023/08/26,高雄市,鳳山區,過埤里,6401200-040,120.363015132598,22.5984603438942,6.000,2,4.000,2,15.789,5,42.000,4,0.0200,6.00
2023/08/26,高雄市,岡山區,仁壽里,6401900-016,120.286713300141,22.7917090530125,10.000,3,8.000,3,26.315,6,164.000,5,0.1400,10.00
2023/08/26,高雄市,林園區,林內里,6401300-012,120.399464815158,22.5334643285851,40.000,5,14.000,3,71.428,9,3208.000,8,0.0200,40.00
2023/08/26,高雄市,左營區,新上里,6400300-040,120.308224914317,22.6621251399324,1.851,1,1.851,1,5.263,2,3.703,2,0.0000,1.85
2023/08/26,高雄市,三民區,同德里,6400500-052,120.312819276852,22.6419249641928,6.000,2,6.000,2,20.000,5,50.000,4,0.0200,6.00
2023/08/26,高雄市,仁武區,五和里,6401700-013,120.330816272544,22.6953231352959,2.000,1,2.000,1,5.263,2,16.000,3,0.0000,2.00
2023/08/27,高雄市,前鎮區,信義里,6400900-010,120.315770444619,22.5844362430013,4.000,1,4.000,2,28.571,7,12.000,3,0.0000,4.00
2023/08/27,高雄市,大寮區,後庄里,6401400-010,120.390620367398,22.6379205771949,2.000,1,2.000,1,7.692,3,10.000,2,0.0000,2.00
2023/08/27,高雄市,大寮區,後庄里,6401400-010,120.390620367398,22.6379205771949,14.000,3,12.000,3,20.000,5,90.000,4,0.0000,14.00
2023/08/28,高雄市,楠梓區,隆昌里,6400400-029,120.293619018959,22.7111971466965,0.000,0,0.000,0,0.000,0,0.000,0,0.0000,0.00
2023/08/28,高雄市,鼓山區,龍水里,6400200-016,120.28716916228,22.6565980725784,2.000,1,2.000,1,11.111,4,30.000,3,0.0000,2.00
2023/08/28,高雄市,前鎮區,信義里,6400900-010,120.315770444619,22.5844362430013,0.000,0,0.000,0,0.000,0,0.000,0,0.0000,0.00
2023/08/28,高雄市,前鎮區,平等里,6400900-007,120.320563775756,22.5880472807576,0.000,0,0.000,0,0.000,0,0.000,0,0.0000,0.00
2023/08/28,高雄市,三民區,千歲里,6400500-085,120.290583726603,22.6349999543384,0.000,0,0.000,0,0.000,0,0.000,0,0.0000,0.00
2023/08/28,高雄市,苓雅區,田西里,6400800-012,120.298298109293,22.6178200830502,4.000,1,4.000,2,9.523,4,20.000,3,0.0000,4.00
2023/08/28,高雄市,仁武區,五和里,6401700-013,120.330816272544,22.6953231352959,6.000,2,4.000,2,13.043,4,16.000,3,0.0000,6.00
2023/08/28,高雄市,鳳山區,曹公里,6401200-041,120.358970079685,22.6300512493609,12.000,3,4.000,2,27.272,6,130.000,5,0.0000,12.00
2023/08/28,高雄市,左營區,新上里,6400300-040,120.308224914317,22.6621251399324,6.000,2,6.000,2,13.043,4,34.000,4,0.0000,6.00
2023/08/28,高雄市,左營區,菜公里,6400300-043,120.31178326346,22.6780117583188,2.000,1,2.000,1,4.166,2,6.000,2,0.0000,2.00
2023/08/28,高雄市,茄萣區,白雲里,6402600-003,120.186085299624,22.9093325958353,12.000,3,4.000,2,24.000,6,46.000,4,0.0000,12.00
2023/08/28,高雄市,左營區,合群里,6400300-017,120.289013065881,22.7006170847727,2.000,1,2.000,1,11.111,4,2.000,1,0.0000,2.00
2023/08/28,高雄市,楠梓區,惠豐里,6400400-008,120.317150589023,22.730144227767,0.000,0,0.000,0,0.000,0,0.000,0,0.0000,0.00
2023/08/28,高雄市,三民區,長明里,6400500-074,120.305070076565,22.6385025886052,0.000,0,0.000,0,0.000,0,0.000,0,0.0000,0.00
2023/08/29,高雄市,楠梓區,建昌里,6400400-025,120.291364672664,22.7134342138207,0.000,0,0.000,0,0.000,0,0.000,0,0.0000,0.00
2023/08/29,高雄市,三民區,寶興里,6400500-019,120.328950647764,22.6439889388348,2.000,1,2.000,1,5.555,3,10.000,2,0.0000,2.00
2023/08/29,高雄市,楠梓區,惠豐里,6400400-008,120.317150589023,22.730144227767,0.000,0,0.000,0,0.000,0,0.000,0,0.0000,0.00
2023/08/29,高雄市,三民區,安吉里,6400500-044,120.315980893027,22.6429012053707,2.000,1,2.000,1,6.666,3,6.000,2,0.0000,2.00
2023/08/29,高雄市,小港區,合作里,6401100-030,120.364101878171,22.5804552463576,4.000,1,4.000,2,9.090,3,18.000,3,0.0000,4.00
2023/08/29,高雄市,前鎮區,西甲里,6400900-033,120.306952233418,22.611539170876,4.000,1,4.000,2,22.222,6,16.000,3,0.0000,4.00
2023/08/29,高雄市,大社區,保安里,6401600-009,120.357522038842,22.7385858983618,8.000,2,8.000,3,13.333,4,36.000,4,0.0000,8.00
2023/08/29,高雄市,左營區,菜公里,6400300-043,120.31178326346,22.6780117583188,0.000,0,0.000,0,0.000,0,0.000,0,0.0000,0.00
2023/08/29,高雄市,鳳山區,興仁里,6401200-042,120.355939574952,22.6221043223902,8.000,2,8.000,3,21.052,6,40.000,4,0.0200,8.00
2023/08/29,高雄市,楠梓區,惠民里,6400400-007,120.322901420835,22.7309571270033,3.921,1,3.921,2,5.263,2,9.803,2,0.0000,3.92
2023/08/29,高雄市,楠梓區,惠民里,6400400-007,120.322901420835,22.7309571270033,6.000,2,4.000,2,27.272,6,34.000,4,0.0400,6.00
2023/08/29,高雄市,三民區,鼎西里,6400500-005,120.324835266911,22.6626096574435,0.000,0,0.000,0,0.000,0,0.000,0,0.0000,0.00
2023/08/29,高雄市,大寮區,後庄里,6401400-010,120.390620367398,22.6379205771949,12.000,3,6.000,2,19.354,5,186.000,5,0.0200,12.00
2023/08/29,高雄市,三民區,安康里,6400500-042,120.318048754824,22.6392415578089,12.000,3,12.000,3,30.000,7,46.000,4,0.0200,12.00
2023/08/30,高雄市,鼓山區,登山里,6400200-029,120.276282449635,22.6277915546879,0.000,0,0.000,0,0.000,0,0.000,0,0.0000,0.00
2023/08/30,高雄市,左營區,新下里,6400300-039,120.299510729206,22.6711867566794,0.000,0,0.000,0,0.000,0,0.000,0,0.0000,0.00
2023/08/30,高雄市,大寮區,後庄里,6401400-010,120.390620367398,22.6379205771949,6.000,2,4.000,2,6.521,3,46.000,4,0.0200,6.00
2023/08/30,高雄市,大寮區,後庄里,6401400-010,120.390620367398,22.6379205771949,1.000,1,1.000,1,2.173,1,8.000,2,0.0200,1.00
2023/08/30,高雄市,左營區,福山里,6400300-044,120.31688893937,22.6853960803094,4.000,1,4.000,2,5.555,3,34.000,4,0.0000,4.00
2023/08/30,高雄市,大寮區,中庄里,6401400-009,120.401004791408,22.6339973310407,4.000,1,4.000,2,13.333,4,20.000,3,0.0000,4.00
2023/08/30,高雄市,三民區,寶龍里,6400500-028,120.323519935066,22.6455805107694,4.000,1,4.000,2,6.896,3,26.000,3,0.0000,4.00
2023/08/31,高雄市,三民區,正興里,6400500-038,120.318926456279,22.6463207067984,12.000,3,10.000,3,46.153,9,80.000,4,0.0000,12.00
2023/08/31,高雄市,鼓山區,龍子里,6400200-015,120.298611957205,22.6561209147425,20.000,4,8.000,3,29.411,7,94.000,4,0.0000,20.00
2023/08/31,高雄市,三民區,寶興里,6400500-019,120.328950647764,22.6439889388348,0.000,0,0.000,0,0.000,0,0.000,0,0.0000,0.00
2023/08/31,高雄市,三民區,安邦里,6400500-062,120.297224849061,22.6470527435905,4.000,1,4.000,2,9.523,4,22.000,3,0.0000,4.00
2023/08/31,高雄市,前鎮區,鎮陽里,6400900-020,120.30874566653,22.5915385353213,0.000,0,0.000,0,0.000,0,0.000,0,0.0000,0.00
2023/08/31,高雄市,鳥松區,大華里,6401800-003,120.340724307398,22.6568537712562,12.000,3,10.000,3,33.333,8,80.000,4,0.0200,12.00
2023/08/31,高雄市,左營區,新中里,6400300-041,120.309405770329,22.6700290376611,0.000,0,0.000,0,0.000,0,0.000,0,0.0000,0.00
2023/08/31,高雄市,大寮區,後庄里,6401400-010,120.390620367398,22.6379205771949,6.993,2,1.398,1,15.151,5,2.797,1,0.0000,6.99
2023/08/31,高雄市,鼓山區,山下里,6400200-026,120.27915104421,22.629507249341,13.000,3,11.000,3,36.111,8,82.000,4,0.0100,13.00
2023/08/31,高雄市,苓雅區,日中里,6400800-018,120.309180218511,22.6171847743391,4.000,1,4.000,2,9.523,4,50.000,4,0.0000,4.00
2023/08/31,高雄市,苓雅區,林榮里,6400800-045,120.325469338642,22.6175057089597,14.000,3,6.000,2,26.923,6,42.000,4,0.0200,14.00
2023/08/31,高雄市,前鎮區,瑞華里,6400900-060,120.335941673928,22.6081979817943,18.000,3,8.000,3,33.333,8,68.000,4,0.0400,18.00
2023/08/31,高雄市,前鎮區,瑞華里,6400900-060,120.335941673928,22.6081979817943,8.000,2,8.000,3,28.571,7,32.000,4,0.0000,8.00
2023/08/31,高雄市,鳳山區,文德里,6401200-039,120.350936651088,22.6438998029759,8.000,2,8.000,3,19.047,5,38.000,4,0.0000,8.00
2023/09/01,高雄市,鳳山區,協和里,6401200-047,120.349093009453,22.6227855928453,2.000,1,2.000,1,5.882,3,6.000,2,0.0000,2.00
2023/09/01,高雄市,鳳山區,善美里,6401200-075,120.334121963659,22.6014008783692,10.000,3,8.000,3,27.777,7,92.000,4,0.0000,10.00
2023/09/01,高雄市,前金區,民生里,6400700-010,120.295292345177,22.6281174766097,0.000,0,0.000,0,0.000,0,0.000,0,0.0000,0.00
2023/09/01,高雄市,前金區,長生里,6400700-017,120.29864010388,22.6245059048261,4.000,1,4.000,2,11.764,4,10.000,2,0.0000,4.00
2023/09/01,高雄市,楠梓區,錦屏里,6400400-009,120.31180873815,22.7167725765024,0.000,0,0.000,0,0.000,0,0.000,0,0.0000,0.00
2023/09/01,高雄市,左營區,新下里,6400300-039,120.299510729206,22.6711867566794,16.000,3,6.000,2,25.806,6,110.000,5,0.0000,16.00
2023/09/01,高雄市,楠梓區,清豐里,6400400-001,120.331135228679,22.7441569161639,0.000,0,0.000,0,0.000,0,0.000,0,0.0000,0.00
2023/09/01,高雄市,大寮區,後庄里,6401400-010,120.390620367398,22.6379205771949,6.000,2,6.000,2,18.750,5,66.000,4,0.0000,6.00
2023/09/01,高雄市,鼓山區,龍水里,6400200-016,120.28716916228,22.6565980725784,2.000,1,2.000,1,2.222,1,26.000,3,0.0000,2.00
2023/09/01,高雄市,左營區,埤西里,6400300-029,120.288005948693,22.6810963087281,0.000,0,0.000,0,0.000,0,0.000,0,0.0000,0.00
2023/09/01,高雄市,美濃區,清水里,6403100-015,120.517346414305,22.8674763786994,12.000,3,12.000,3,46.153,9,150.000,5,0.0400,12.00
2023/09/01,高雄市,橋頭區,白樹里,6402000-008,120.301571865603,22.7585751735561,16.000,3,8.000,3,23.529,6,76.000,4,0.0400,16.00
2023/09/01,高雄市,鳳山區,和德里,6401200-006,120.360327775131,22.6194922589586,10.000,3,8.000,3,25.000,6,132.000,5,0.0000,10.00
2023/09/01,高雄市,小港區,店鎮里,6401100-010,120.361386890798,22.559930898762,8.000,2,4.000,2,20.000,5,100.000,4,0.0000,8.00
2023/09/01,高雄市,三民區,民享里,6400500-059,120.30022534406,22.6449213763272,8.000,2,8.000,3,19.047,5,78.000,4,0.0000,8.00
2023/09/01,高雄市,前鎮區,西甲里,6400900-033,120.306952233418,22.611539170876,4.000,1,4.000,2,14.285,4,50.000,4,0.0000,4.00
2023/09/01,高雄市,楠梓區,中興里,6400400-036,120.280801579909,22.7247471071483,0.000,0,0.000,0,0.000,0,0.000,0,0.0000,0.00
2023/09/01,高雄市,楠梓區,仁昌里,6400400-034,120.294119259652,22.7235703036406,0.000,0,0.000,0,0.000,0,0.000,0,0.0000,0.00
2023/09/01,高雄市,鼓山區,明誠里,6400200-017,120.297928763669,22.6634651243903,0.000,0,0.000,0,0.000,0,0.000,0,0.0000,0.00
2023/09/01,高雄市,三民區,寶安里,6400500-027,120.328894870274,22.6403596775204,8.000,2,8.000,3,15.384,5,62.000,4,0.0000,8.00
2023/09/01,高雄市,楠梓區,玉屏里,6400400-010,120.314892076767,22.7153875157098,0.000,0,0.000,0,0.000,0,0.000,0,0.0000,0.00
2023/09/02,高雄市,楠梓區,仁昌里,6400400-034,120.294119259652,22.7235703036406,6.000,2,4.000,2,17.647,5,18.000,3,0.0000,6.00
2023/09/02,高雄市,大寮區,永芳里,6401400-019,120.399189880089,22.6089315470304,12.000,3,6.000,2,35.294,8,60.000,4,0.0000,12.00
2023/09/02,高雄市,湖內區,逸賢里,6402500-012,120.210554143956,22.9003029409365,20.000,4,12.000,3,41.666,9,320.000,6,0.0200,20.00
2023/09/02,高雄市,梓官區,禮蚵里,6402900-007,120.250386340749,22.7326310829957,6.000,2,6.000,2,18.750,5,36.000,4,0.0000,6.00
2023/09/02,高雄市,大寮區,中興里,6401400-025,120.392996559025,22.6187731666846,6.000,2,6.000,2,21.428,6,48.000,4,0.0200,6.00
2023/09/02,高雄市,楠梓區,清豐里,6400400-001,120.331135228679,22.7441569161639,4.000,1,4.000,2,9.090,3,18.000,3,0.0000,4.00
2023/09/02,高雄市,鳳山區,協和里,6401200-047,120.349093009453,22.6227855928453,2.000,1,2.000,1,3.125,2,20.000,3,0.1600,2.00
2023/09/04,高雄市,鳳山區,曹公里,6401200-041,120.358970079685,22.6300512493609,0.000,0,0.000,0,0.000,0,0.000,0,0.0000,0.00
2023/09/04,高雄市,茄萣區,白雲里,6402600-003,120.186085299624,22.9093325958353,2.000,1,2.000,1,4.761,2,2.000,1,0.0000,2.00
2023/09/04,高雄市,林園區,林內里,6401300-012,120.399464815158,22.5334643285851,6.000,2,6.000,2,14.285,4,42.000,4,0.0000,6.00
2023/09/04,高雄市,岡山區,仁壽里,6401900-016,120.286713300141,22.7917090530125,0.000,0,0.000,0,0.000,0,0.000,0,0.0000,0.00
2023/09/05,高雄市,大寮區,永芳里,6401400-019,120.399189880089,22.6089315470304,12.000,3,8.000,3,40.000,8,80.000,4,0.0000,12.00
2023/09/05,高雄市,鳳山區,埤頂里,6401200-014,120.377253069125,22.6309206742823,12.000,3,8.000,3,33.333,8,166.000,5,0.0000,12.00
2023/09/05,高雄市,左營區,福山里,6400300-044,120.31688893937,22.6853960803094,2.000,1,2.000,1,5.555,3,6.000,2,0.0000,2.00
2023/09/05,高雄市,左營區,菜公里,6400300-043,120.31178326346,22.6780117583188,0.000,0,0.000,0,0.000,0,0.000,0,0.0000,0.00
2023/09/05,高雄市,鼓山區,厚生里,6400200-014,120.279414571287,22.6464193893687,0.000,0,0.000,0,0.000,0,0.000,0,0.0000,0.00
2023/09/05,高雄市,鼓山區,龍子里,6400200-015,120.298611957205,22.6561209147425,12.000,3,10.000,3,20.689,6,76.000,4,0.0200,12.00
2023/09/05,高雄市,小港區,順苓里,6401100-015,120.356551896071,22.5676249078958,2.000,1,2.000,1,3.571,2,10.000,2,0.0000,2.00
2023/09/05,高雄市,苓雅區,安祥里,6400800-037,120.31912660575,22.631826647504,2.000,1,2.000,1,6.250,3,20.000,3,0.0000,2.00
2023/09/05,高雄市,苓雅區,正言里,6400800-060,120.326722579976,22.6303390886343,2.000,1,2.000,1,3.333,2,20.000,3,0.0600,2.00
2023/09/05,高雄市,梓官區,禮蚵里,6402900-007,120.250386340749,22.7326310829957,2.000,1,2.000,1,6.666,3,6.000,2,0.0000,2.00
2023/09/05,高雄市,鳳山區,正義里,6401200-027,120.34031583266,22.6028596555928,4.000,1,4.000,2,10.526,4,24.000,3,0.0000,4.00
2023/09/05,高雄市,左營區,新光里,6400300-042,120.303010946861,22.6773485555155,8.000,2,8.000,3,19.512,5,62.000,4,0.0000,8.00
2023/09/05,高雄市,楠梓區,金田里,6400400-011,120.317053851054,22.7232234112516,0.000,0,0.000,0,0.000,0,0.000,0,0.0000,0.00
2023/09/05,高雄市,大寮區,後庄里,6401400-010,120.390620367398,22.6379205771949,2.000,1,2.000,1,4.761,2,28.000,3,0.0200,2.00
2023/09/05,高雄市,楠梓區,惠民里,6400400-007,120.322901420835,22.7309571270033,14.000,3,10.000,3,26.923,6,84.000,4,0.0600,14.00
2023/09/05,高雄市,楠梓區,錦屏里,6400400-009,120.31180873815,22.7167725765024,10.000,3,10.000,3,25.000,6,26.000,3,0.0000,10.00
2023/09/05,高雄市,前鎮區,鎮海里,6400900-019,120.31716475852,22.5905845934522,10.000,3,8.000,3,29.411,7,120.000,5,0.0000,10.00
2023/09/05,高雄市,苓雅區,和煦里,6400800-020,120.309034651,22.6205365306805,10.000,3,10.000,3,19.230,5,74.000,4,0.0000,10.00
2023/09/06,高雄市,新興區,秋山里,6400600-026,120.300708740563,22.6336756670064,8.000,2,4.000,2,21.052,6,50.000,4,0.0200,8.00
2023/09/06,高雄市,三民區,博愛里,6400500-072,120.310230151555,22.6383802780552,8.000,2,6.000,2,18.181,5,88.000,4,0.0000,8.00
2023/09/06,高雄市,大寮區,後庄里,6401400-010,120.390620367398,22.6379205771949,0.000,0,0.000,0,0.000,0,0.000,0,0.0000,0.00
2023/09/06,高雄市,大寮區,江山里,6401400-022,120.413600326151,22.6378919062832,8.000,2,6.000,2,17.391,5,84.000,4,0.0800,8.00
2023/09/06,高雄市,楠梓區,久昌里,6400400-019,120.284272495272,22.7095103097005,4.000,1,4.000,2,9.523,4,8.000,2,0.0000,4.00
2023/09/06,高雄市,左營區,尾西里,6400300-002,120.29334014077,22.6893409788185,10.000,3,10.000,3,21.739,6,114.000,5,0.0000,10.00
2023/09/06,高雄市,三民區,安康里,6400500-042,120.318048754824,22.6392415578089,0.000,0,0.000,0,0.000,0,0.000,0,0.0000,0.00
2023/09/06,高雄市,左營區,新下里,6400300-039,120.299510729206,22.6711867566794,0.000,0,0.000,0,0.000,0,0.000,0,0.0000,0.00
2023/09/06,高雄市,左營區,新光里,6400300-042,120.303010946861,22.6773485555155,12.000,3,10.000,3,40.000,8,92.000,4,0.0000,12.00
2023/09/06,高雄市,仁武區,五和里,6401700-013,120.330816272544,22.6953231352959,2.000,1,2.000,1,5.882,3,20.000,3,0.0000,2.00
2023/09/06,高雄市,鳳山區,新武里,6401200-066,120.339017220432,22.6081792300411,10.000,3,10.000,3,27.777,7,140.000,5,0.0000,10.00
2023/09/06,高雄市,旗津區,復興里,6401000-005,120.272292334142,22.601454528497,0.000,0,0.000,0,0.000,0,0.000,0,0.0000,0.00
2023/09/06,高雄市,楠梓區,中興里,6400400-036,120.280801579909,22.7247471071483,10.000,3,6.000,2,23.809,6,304.000,6,0.0000,10.00
2023/09/06,高雄市,左營區,菜公里,6400300-043,120.31178326346,22.6780117583188,6.000,2,6.000,2,15.789,5,8.000,2,0.0000,6.00
2023/09/06,高雄市,仁武區,中華里,6401700-012,120.328543581852,22.7139701256466,2.000,1,2.000,1,6.250,3,8.000,2,0.0000,2.00
2023/09/06,高雄市,鳳山區,新泰里,6401200-068,120.344484745715,22.6109994979764,8.000,2,8.000,3,25.000,6,56.000,4,0.0000,8.00
2023/09/06,高雄市,鳳山區,誠智里,6401200-062,120.373544173735,22.616145678614,12.000,3,12.000,3,35.294,8,58.000,4,0.0000,12.00
2023/09/06,高雄市,鳳山區,和德里,6401200-006,120.360327775131,22.6194922589586,0.000,0,0.000,0,0.000,0,0.000,0,0.0000,0.00
2023/09/07,高雄市,湖內區,逸賢里,6402500-012,120.210554143956,22.9003029409365,2.000,1,2.000,1,7.142,3,6.000,2,0.0000,2.00
2023/09/07,高雄市,美濃區,清水里,6403100-015,120.517346414305,22.8674763786994,3.636,1,3.636,2,4.651,2,18.181,3,0.0000,3.63
2023/09/07,高雄市,鳥松區,大華里,6401800-003,120.340724307398,22.6568537712562,2.000,1,2.000,1,7.692,3,10.000,2,0.0000,2.00
2023/09/07,高雄市,楠梓區,藍田里,6400400-035,120.286481093465,22.7306550791694,8.000,2,4.000,2,21.052,6,30.000,3,0.0000,8.00
2023/09/07,高雄市,楠梓區,仁昌里,6400400-034,120.294119259652,22.7235703036406,3.921,1,3.921,2,5.263,2,7.843,2,0.0000,3.92
2023/09/07,高雄市,鼓山區,龍子里,6400200-015,120.298611957205,22.6561209147425,2.000,1,2.000,1,5.263,2,40.000,4,0.0000,2.00
2023/09/07,高雄市,楠梓區,惠楠里,6400400-006,120.325888927062,22.7270821570086,14.000,3,8.000,3,31.818,8,70.000,4,0.0000,14.00
2023/09/07,高雄市,左營區,莒光里,6400300-015,120.294649663838,22.7035922110486,6.000,2,6.000,2,10.344,4,36.000,4,0.0000,6.00
2023/09/07,高雄市,三民區,正興里,6400500-038,120.318926456279,22.6463207067984,0.000,0,0.000,0,0.000,0,0.000,0,0.0000,0.00
2023/09/07,高雄市,鳳山區,善美里,6401200-075,120.334121963659,22.6014008783692,0.000,0,0.000,0,0.000,0,0.000,0,0.0000,0.00
2023/09/07,高雄市,左營區,新下里,6400300-039,120.299510729206,22.6711867566794,6.000,2,4.000,2,13.043,4,38.000,4,0.0000,6.00
2023/09/07,高雄市,左營區,新光里,6400300-042,120.303010946861,22.6773485555155,8.000,2,8.000,3,21.052,6,84.000,4,0.0000,8.00
2023/09/07,高雄市,路竹區,社西里,6402400-006,120.262158013456,22.8682683385208,8.000,2,8.000,3,19.047,5,66.000,4,0.0200,8.00
2023/09/07,高雄市,鼓山區,光化里,6400200-025,120.279226006527,22.6325520373303,2.000,1,2.000,1,8.333,3,12.000,3,0.0400,2.00
2023/09/07,高雄市,新興區,浩然里,6400600-001,120.308961642018,22.624315963516,6.000,2,4.000,2,17.647,5,8.000,2,0.0000,6.00
2023/09/07,高雄市,左營區,尾西里,6400300-002,120.29334014077,22.6893409788185,0.000,0,0.000,0,0.000,0,0.000,0,0.0000,0.00
2023/09/07,高雄市,大寮區,中興里,6401400-025,120.392996559025,22.6187731666846,16.000,3,10.000,3,36.363,8,152.000,5,0.0200,16.00
2023/09/07,高雄市,前鎮區,瑞華里,6400900-060,120.335941673928,22.6081979817943,0.000,0,0.000,0,0.000,0,0.000,0,0.0000,0.00
2023/09/07,高雄市,前鎮區,鎮海里,6400900-019,120.31716475852,22.5905845934522,2.000,1,2.000,1,5.555,3,4.000,2,0.0000,2.00
2023/09/07,高雄市,苓雅區,林榮里,6400800-045,120.325469338642,22.6175057089597,0.000,0,0.000,0,0.000,0,0.000,0,0.0000,0.00
2023/09/08,高雄市,大寮區,內坑里,6401400-002,120.386813901791,22.5901607133925,4.000,1,4.000,2,7.692,3,120.000,5,0.0000,4.00
2023/09/08,高雄市,左營區,新光里,6400300-042,120.303010946861,22.6773485555155,0.000,0,0.000,0,0.000,0,0.000,0,0.0000,0.00
2023/09/08,高雄市,鳳山區,協和里,6401200-047,120.349093009453,22.6227855928453,6.000,2,6.000,2,20.000,5,108.000,5,0.3000,6.00
2023/09/08,高雄市,岡山區,竹圍里,6401900-019,120.307546026616,22.803562263535,16.000,3,4.000,2,42.105,9,1084.000,7,0.0600,16.00
2023/09/08,高雄市,鳳山區,光明里,6401200-003,120.360738486125,22.6267432863136,6.000,2,6.000,2,15.000,5,80.000,4,0.0000,6.00
2023/09/08,高雄市,鳳山區,瑞竹里,6401200-018,120.370193465235,22.6258774889932,2.777,1,2.777,1,5.405,2,6.944,2,0.0000,2.77
2023/09/08,高雄市,鹽埕區,港都里,6400100-014,120.280713699856,22.6231651198917,6.000,2,4.000,2,13.636,4,40.000,4,0.0000,6.00
2023/09/08,高雄市,鹽埕區,壽星里,6400100-004,120.28426150607,22.6303818602398,6.000,2,6.000,2,15.000,5,108.000,5,0.2200,6.00
2023/09/08,高雄市,苓雅區,福康里,6400800-052,120.330697363937,22.6196109133775,8.000,2,8.000,3,15.384,5,120.000,5,0.0000,8.00
2023/09/08,高雄市,苓雅區,同慶里,6400800-035,120.321507733624,22.6256937747828,6.000,2,4.000,2,15.000,5,28.000,3,0.0000,6.00
2023/09/08,高雄市,小港區,山明里,6401100-022,120.372016676726,22.5483760397007,2.000,1,2.000,1,5.555,3,4.000,2,0.0000,2.00
2023/09/08,高雄市,小港區,坪頂里,6401100-027,120.386531295458,22.5459334455366,16.000,3,6.000,2,38.095,8,168.000,5,0.1800,16.00
2023/09/08,高雄市,左營區,菜公里,6400300-043,120.31178326346,22.6780117583188,14.000,3,8.000,3,33.333,8,90.000,4,0.0200,14.00
2023/09/09,高雄市,鳳山區,過埤里,6401200-040,120.363015132598,22.5984603438942,6.000,2,6.000,2,15.000,5,24.000,3,0.0000,6.00
2023/09/09,高雄市,鳳山區,國隆里,6401200-038,120.346501477321,22.6178818084402,6.000,2,4.000,2,16.666,5,20.000,3,0.0000,6.00
2023/09/09,高雄市,鼓山區,山下里,6400200-026,120.27915104421,22.629507249341,9.900,3,6.930,2,28.571,7,103.960,5,0.0000,9.90
2023/09/09,高雄市,鼓山區,光化里,6400200-025,120.279226006527,22.6325520373303,13.432,3,8.955,3,24.324,6,108.955,5,0.0298,13.43
2023/09/09,高雄市,前鎮區,鎮海里,6400900-019,120.31716475852,22.5905845934522,8.000,2,6.000,2,17.391,5,68.000,4,0.0000,8.00
2023/09/09,高雄市,三民區,千北里,6400500-087,120.288978059318,22.6361334352555,6.000,2,4.000,2,12.000,4,94.000,4,0.0000,6.00
2023/09/10,高雄市,前鎮區,鎮海里,6400900-019,120.31716475852,22.5905845934522,2.000,1,2.000,1,7.692,3,2.000,1,0.0000,2.00
2023/09/10,高雄市,鹽埕區,府北里,6400100-017,120.285940584971,22.6282725967998,8.000,2,6.000,2,23.529,6,88.000,4,0.0400,8.00
2023/09/10,高雄市,美濃區,清水里,6403100-015,120.517346414305,22.8674763786994,4.000,1,4.000,2,4.651,2,20.000,3,0.0000,4.00
2023/09/10,高雄市,苓雅區,奏捷里,6400800-038,120.324267461136,22.6267831059704,6.000,2,4.000,2,7.317,3,16.000,3,0.0000,6.00
2023/09/10,高雄市,苓雅區,正文里,6400800-059,120.327887997817,22.631913732279,2.000,1,2.000,1,3.846,2,60.000,4,0.0000,2.00
2023/09/11,高雄市,苓雅區,正仁里,6400800-066,120.339477190415,22.6308252552011,4.000,1,4.000,2,11.111,4,14.000,3,0.0000,4.00
2023/09/11,高雄市,小港區,合作里,6401100-030,120.364101878171,22.5804552463576,4.000,1,4.000,2,13.333,4,60.000,4,0.0000,4.00
2023/09/11,高雄市,小港區,松金里,6401100-024,120.368303087999,22.5716314883027,6.000,2,4.000,2,12.000,4,72.000,4,0.0000,6.00
2023/09/11,高雄市,三民區,寶興里,6400500-019,120.328950647764,22.6439889388348,4.000,1,4.000,2,7.692,3,10.000,2,0.0000,4.00
2023/09/11,高雄市,前鎮區,德昌里,6400900-006,120.319483825405,22.5805426027209,8.000,2,6.000,2,25.000,6,52.000,4,0.1000,8.00
2023/09/11,高雄市,鳳山區,埤頂里,6401200-014,120.377253069125,22.6309206742823,10.000,3,6.000,2,26.315,6,72.000,4,0.0000,10.00
2023/09/11,高雄市,大寮區,永芳里,6401400-019,120.399189880089,22.6089315470304,24.000,4,14.000,3,44.444,9,166.000,5,0.0800,24.00
2023/09/11,高雄市,三民區,本和里,6400500-009,120.326183312716,22.6568510440827,4.000,1,4.000,2,8.000,3,10.000,2,0.0000,4.00
2023/09/11,高雄市,鼓山區,建國里,6400200-007,120.277364399093,22.6584496181037,10.000,3,10.000,3,26.315,6,72.000,4,0.0200,10.00
2023/09/11,高雄市,楠梓區,隆昌里,6400400-029,120.293619018959,22.7111971466965,3.921,1,3.921,2,6.451,3,7.843,2,0.0000,3.92
2023/09/11,高雄市,楠梓區,隆昌里,6400400-029,120.293619018959,22.7111971466965,8.000,2,8.000,3,22.222,6,90.000,4,0.0000,8.00
2023/09/11,高雄市,左營區,尾西里,6400300-002,120.29334014077,22.6893409788185,0.000,0,0.000,0,0.000,0,0.000,0,0.0000,0.00
2023/09/11,高雄市,左營區,新光里,6400300-042,120.303010946861,22.6773485555155,6.000,2,5.000,2,17.647,5,35.000,4,0.0000,6.00
2023/09/11,高雄市,楠梓區,清豐里,6400400-001,120.331135228679,22.7441569161639,1.960,1,1.960,1,2.857,2,3.921,2,0.0000,1.96
2023/09/11,高雄市,苓雅區,林貴里,6400800-044,120.32360642293,22.6170864899151,6.000,2,4.000,2,12.000,4,30.000,3,0.0200,6.00
2023/09/11,高雄市,鳳山區,新武里,6401200-066,120.339017220432,22.6081792300411,6.000,2,6.000,2,15.789,5,38.000,4,0.0000,6.00
2023/09/12,高雄市,鳳山區,老爺里,6401200-017,120.345662334792,22.6072793067485,14.000,3,10.000,3,30.434,7,90.000,4,0.0200,14.00
2023/09/12,高雄市,苓雅區,和煦里,6400800-020,120.309034651,22.6205365306805,2.000,1,2.000,1,6.250,3,6.000,2,0.0000,2.00
2023/09/12,高雄市,左營區,新光里,6400300-042,120.303010946861,22.6773485555155,4.000,1,4.000,2,10.256,4,20.000,3,0.0000,4.00
2023/09/12,高雄市,左營區,新下里,6400300-039,120.299510729206,22.6711867566794,4.000,1,4.000,2,8.333,3,16.000,3,0.0200,4.00
2023/09/12,高雄市,左營區,果貿里,6400300-036,120.288399956382,22.6712708099325,4.000,1,4.000,2,10.000,4,104.000,5,0.0000,4.00
2023/09/12,高雄市,大寮區,後庄里,6401400-010,120.390620367398,22.6379205771949,8.000,2,8.000,3,18.181,5,38.000,4,0.0000,8.00
2023/09/12,高雄市,左營區,菜公里,6400300-043,120.31178326346,22.6780117583188,0.000,0,0.000,0,0.000,0,0.000,0,0.0000,0.00
2023/09/12,高雄市,鹽埕區,壽星里,6400100-004,120.28426150607,22.6303818602398,8.000,2,6.000,2,20.000,5,76.000,4,0.0600,8.00
2023/09/12,高雄市,鼓山區,龍子里,6400200-015,120.298611957205,22.6561209147425,6.000,2,5.000,2,21.428,6,46.000,4,0.0100,6.00
2023/09/12,高雄市,小港區,松金里,6401100-024,120.368303087999,22.5716314883027,2.000,1,2.000,1,5.555,3,20.000,3,0.0200,2.00
2023/09/12,高雄市,前鎮區,竹東里,6400900-041,120.324118613341,22.6110674671385,10.000,3,10.000,3,25.000,6,64.000,4,0.0000,10.00
2023/09/12,高雄市,前鎮區,瑞竹里,6400900-046,120.320154267609,22.60125557969,12.000,3,10.000,3,30.000,7,70.000,4,0.0000,12.00
2023/09/13,高雄市,前鎮區,瑞和里,6400900-051,120.330243012112,22.6035514929845,6.000,2,4.000,2,16.666,5,80.000,4,0.0000,6.00
2023/09/13,高雄市,小港區,泰山里,6401100-021,120.363661746901,22.5721755179088,0.000,0,0.000,0,0.000,0,0.000,0,0.0000,0.00
2023/09/13,高雄市,楠梓區,惠楠里,6400400-006,120.325888927062,22.7270821570086,0.000,0,0.000,0,0.000,0,0.000,0,0.0000,0.00
2023/09/13,高雄市,鹽埕區,壽星里,6400100-004,120.28426150607,22.6303818602398,4.000,1,4.000,2,11.111,4,80.000,4,0.1000,4.00
2023/09/13,高雄市,鹽埕區,藍橋里,6400100-001,120.28457192487,22.6328106282014,8.000,2,8.000,3,16.666,5,96.000,4,0.0000,8.00
2023/09/13,高雄市,左營區,新光里,6400300-042,120.303010946861,22.6773485555155,0.000,0,0.000,0,0.000,0,0.000,0,0.0000,0.00
2023/09/13,高雄市,前鎮區,鎮海里,6400900-019,120.31716475852,22.5905845934522,10.714,3,7.142,2,31.578,8,216.071,5,0.0178,10.71
2023/09/13,高雄市,楠梓區,惠民里,6400400-007,120.322901420835,22.7309571270033,3.921,1,3.921,2,5.714,3,7.843,2,0.0000,3.92
2023/09/13,高雄市,前鎮區,忠孝里,6400900-038,120.314325740597,22.6152656942116,4.000,1,4.000,2,14.285,4,26.000,3,0.0400,4.00
2023/09/13,高雄市,鳳山區,新武里,6401200-066,120.339017220432,22.6081792300411,0.000,0,0.000,0,0.000,0,0.000,0,0.0000,0.00
2023/09/14,高雄市,岡山區,竹圍里,6401900-019,120.307546026616,22.803562263535,0.000,0,0.000,0,0.000,0,0.000,0,0.0000,0.00
2023/09/14,高雄市,前鎮區,瑞華里,6400900-060,120.335941673928,22.6081979817943,4.000,1,4.000,2,8.695,3,24.000,3,0.0000,4.00
2023/09/14,高雄市,楠梓區,錦屏里,6400400-009,120.31180873815,22.7167725765024,3.921,1,3.921,2,5.263,2,7.843,2,0.0000,3.92
2023/09/14,高雄市,左營區,自助里,6400300-035,120.286057377047,22.6749368498324,6.000,2,6.000,2,15.789,5,16.000,3,0.0000,6.00
2023/09/14,高雄市,左營區,新光里,6400300-042,120.303010946861,22.6773485555155,12.000,3,12.000,3,15.789,5,48.000,4,0.0400,12.00
2023/09/14,高雄市,大寮區,後庄里,6401400-010,120.390620367398,22.6379205771949,9.016,2,8.196,3,19.642,5,33.606,4,0.0245,9.01
2023/09/14,高雄市,鳳山區,文英里,6401200-011,120.358754779824,22.6372089066077,4.000,1,4.000,2,7.692,3,60.000,4,0.0000,4.00
2023/09/15,高雄市,左營區,福山里,6400300-044,120.31688893937,22.6853960803094,12.000,3,6.000,2,27.272,6,52.000,4,0.0000,12.00
2023/09/15,高雄市,三民區,本元里,6400500-012,120.334434087446,22.6525432528511,8.000,2,8.000,3,22.222,6,102.000,5,0.0000,8.00
2023/09/15,高雄市,苓雅區,正大里,6400800-061,120.333152546275,22.629579094131,9.090,2,9.090,3,19.230,5,141.818,5,0.0181,9.09
2023/09/15,高雄市,小港區,坪頂里,6401100-027,120.386531295458,22.5459334455366,2.000,1,2.000,1,6.666,3,4.000,2,0.0000,2.00
2023/09/15,高雄市,楠梓區,宏昌里,6400400-026,120.293241428683,22.7180971931082,3.921,1,3.921,2,5.263,2,7.843,2,0.0000,3.92
2023/09/15,高雄市,左營區,新光里,6400300-042,120.303010946861,22.6773485555155,7.526,2,6.451,2,13.461,4,26.881,3,0.0107,7.52
2023/09/15,高雄市,左營區,新下里,6400300-039,120.299510729206,22.6711867566794,6.000,2,4.000,2,10.714,4,42.000,4,0.0000,6.00
2023/09/15,高雄市,左營區,進學里,6400300-001,120.295109310707,22.6919596929904,2.000,1,2.000,1,14.285,4,4.000,2,0.0000,2.00
2023/09/15,高雄市,鼓山區,光化里,6400200-025,120.279226006527,22.6325520373303,4.000,1,4.000,2,14.285,4,8.000,2,0.0000,4.00
2023/09/15,高雄市,鼓山區,山下里,6400200-026,120.27915104421,22.629507249341,2.000,1,2.000,1,8.333,3,6.000,2,0.0000,2.00
2023/09/15,高雄市,苓雅區,福祥里,6400800-050,120.328769728071,22.623646644102,2.000,1,2.000,1,8.333,3,60.000,4,0.0200,2.00
2023/09/15,高雄市,小港區,中厝里,6401100-032,120.342894082979,22.5775248215717,6.000,2,6.000,2,17.647,5,38.000,4,0.0000,6.00
2023/09/15,高雄市,茄萣區,嘉樂里,6402600-011,120.18840856223,22.9006035037035,8.000,2,8.000,3,23.529,6,134.000,5,0.0400,8.00
2023/09/16,高雄市,三民區,本館里,6400500-008,120.330896813772,22.65605117948,6.000,2,6.000,2,13.636,4,22.000,3,0.0000,6.00
2023/09/16,高雄市,小港區,松金里,6401100-024,120.368303087999,22.5716314883027,3.921,1,3.921,2,10.810,4,45.098,4,0.0000,3.92
2023/09/16,高雄市,苓雅區,中正里,6400800-033,120.317119646908,22.626219134593,6.000,2,4.000,2,13.636,4,30.000,3,0.0600,6.00
2023/09/16,高雄市,前金區,長城里,6400700-003,120.295178776483,22.6341933408743,6.000,2,6.000,2,12.500,4,44.000,4,0.0600,6.00
2023/09/16,高雄市,新興區,順昌里,6400600-013,120.314968373296,22.6342364724023,12.000,3,4.000,2,16.666,5,122.000,5,0.0000,12.00
2023/09/16,高雄市,路竹區,文北里,6402400-013,120.247378667939,22.8624655068865,12.000,3,10.000,3,25.000,6,86.000,4,0.2200,12.00
2023/09/16,高雄市,三民區,寶安里,6400500-027,120.328894870274,22.6403596775204,4.000,1,4.000,2,13.333,4,16.000,3,0.0000,4.00
2023/09/17,高雄市,鼓山區,平和里,6400200-012,120.277677872996,22.651327682128,6.000,2,4.000,2,8.108,3,20.000,3,0.0000,6.00
2023/09/17,高雄市,鹽埕區,慈愛里,6400100-002,120.28283870796,22.6314504873568,2.000,1,2.000,1,4.000,2,20.000,3,0.0000,2.00
2023/09/17,高雄市,苓雅區,苓洲里,6400800-002,120.293501344176,22.6186423160893,8.000,2,6.000,2,26.666,6,90.000,4,0.0000,8.00
2023/09/17,高雄市,三民區,達明里,6400500-049,120.305274145587,22.6445640862904,2.000,1,2.000,1,7.692,3,2.000,1,0.0000,2.00
2023/09/18,高雄市,楠梓區,金田里,6400400-011,120.317053851054,22.7232234112516,4.000,1,4.000,2,12.500,4,10.000,2,0.0200,4.00
2023/09/18,高雄市,小港區,桂林里,6401100-031,120.354023452103,22.5806163279836,10.000,3,8.000,3,29.411,7,122.000,5,0.0000,10.00
2023/09/18,高雄市,鼓山區,建國里,6400200-007,120.277364399093,22.6584496181037,2.000,1,2.000,1,6.250,3,6.000,2,0.0000,2.00
2023/09/18,高雄市,鼓山區,忠正里,6400200-008,120.276929417969,22.6549457939232,6.000,2,6.000,2,20.000,5,14.000,3,0.0000,6.00
2023/09/18,高雄市,大寮區,琉球里,6401400-006,120.42353359194,22.612841980687,6.000,2,6.000,2,14.285,4,30.000,3,0.0200,6.00
2023/09/18,高雄市,大寮區,中興里,6401400-025,120.392996559025,22.6187731666846,0.000,0,0.000,0,0.000,0,0.000,0,0.0000,0.00
2023/09/18,高雄市,鳳山區,老爺里,6401200-017,120.345662334792,22.6072793067485,0.000,0,0.000,0,0.000,0,0.000,0,0.0000,0.00
2023/09/18,高雄市,鳳山區,一甲里,6401200-028,120.337238854419,22.6006394913022,6.000,2,2.000,1,11.111,4,30.000,3,0.0000,6.00
2023/09/18,高雄市,鹽埕區,博愛里,6400100-003,120.281896511502,22.6299659380896,4.000,1,4.000,2,11.111,4,44.000,4,0.0000,4.00
2023/09/18,高雄市,楠梓區,中興里,6400400-036,120.280801579909,22.7247471071483,0.000,0,0.000,0,0.000,0,0.000,0,0.0000,0.00
2023/09/18,高雄市,三民區,灣華里,6400500-034,120.321517594587,22.6506814737535,4.000,1,4.000,2,10.526,4,16.000,3,0.0000,4.00
2023/09/18,高雄市,鼓山區,明誠里,6400200-017,120.297928763669,22.6634651243903,16.000,3,6.000,2,34.782,8,68.000,4,0.0000,16.00
2023/09/18,高雄市,左營區,菜公里,6400300-043,120.31178326346,22.6780117583188,2.000,1,2.000,1,11.111,4,4.000,2,0.0000,2.00
2023/09/18,高雄市,左營區,新上里,6400300-040,120.308224914317,22.6621251399324,2.000,1,2.000,1,11.111,4,6.000,2,0.0000,2.00
2023/09/18,高雄市,鳳山區,埤頂里,6401200-014,120.377253069125,22.6309206742823,0.000,0,0.000,0,0.000,0,0.000,0,0.0000,0.00
2023/09/18,高雄市,仁武區,赤山里,6401700-015,120.347043251423,22.6764640516259,4.000,1,4.000,2,20.000,5,12.000,3,0.0000,4.00
2023/09/18,高雄市,岡山區,平安里,6401900-001,120.294181547414,22.792769067706,17.307,3,7.692,3,31.034,7,228.846,5,0.0576,17.30
2023/09/18,高雄市,鳳山區,誠智里,6401200-062,120.373544173735,22.616145678614,10.000,3,8.000,3,31.250,7,66.000,4,0.0000,10.00
2023/09/18,高雄市,大寮區,永芳里,6401400-019,120.399189880089,22.6089315470304,2.000,1,2.000,1,7.692,3,4.000,2,0.0000,2.00
2023/09/18,高雄市,鳳山區,二甲里,6401200-072,120.340365194283,22.5967376032008,10.000,3,8.000,3,27.777,7,70.000,4,0.0000,10.00
2023/09/19,高雄市,鳳山區,保安里,6401200-078,120.348561188549,22.5954298103048,2.000,1,2.000,1,4.347,2,4.000,2,0.0000,2.00
2023/09/19,高雄市,仁武區,仁和里,6401700-014,120.354038721816,22.6779568117654,4.000,1,4.000,2,11.111,4,10.000,2,0.0000,4.00
2023/09/19,高雄市,橋頭區,白樹里,6402000-008,120.301571865603,22.7585751735561,2.000,1,2.000,1,5.555,3,4.000,2,0.0000,2.00
2023/09/19,高雄市,仁武區,八卦里,6401700-009,120.336912597055,22.6852855841335,4.000,1,4.000,2,11.111,4,12.000,3,0.0000,4.00
2023/09/19,高雄市,左營區,新上里,6400300-040,120.308224914317,22.6621251399324,14.000,3,4.000,2,26.923,6,66.000,4,0.0200,14.00
2023/09/19,高雄市,左營區,福山里,6400300-044,120.31688893937,22.6853960803094,0.000,0,0.000,0,0.000,0,0.000,0,0.0000,0.00
2023/09/19,高雄市,三民區,正興里,6400500-038,120.318926456279,22.6463207067984,4.000,1,2.000,1,11.764,4,20.000,3,0.0000,4.00
2023/09/19,高雄市,苓雅區,正大里,6400800-061,120.333152546275,22.629579094131,12.000,3,8.000,3,31.578,8,112.000,5,0.0000,12.00
2023/09/19,高雄市,小港區,山東里,6401100-018,120.34942631103,22.5728271947674,6.000,2,4.000,2,14.285,4,26.000,3,0.0000,6.00
2023/09/19,高雄市,前鎮區,瑞誠里,6400900-058,120.329820769296,22.6118247030278,8.000,2,8.000,3,20.000,5,114.000,5,0.0000,8.00
2023/09/19,高雄市,鳳山區,天興里,6401200-032,120.330317655441,22.5931378475183,12.000,3,10.000,3,31.578,8,128.000,5,0.0000,12.00
2023/09/19,高雄市,大寮區,後庄里,6401400-010,120.390620367398,22.6379205771949,2.000,1,2.000,1,5.555,3,10.000,2,0.0000,2.00
2023/09/19,高雄市,楠梓區,中陽里,6400400-005,120.327924750888,22.7224205555094,8.000,2,8.000,3,28.571,7,26.000,3,0.0000,8.00
2023/09/19,高雄市,楠梓區,翠屏里,6400400-014,120.303801786057,22.727704974475,0.000,0,0.000,0,0.000,0,0.000,0,0.0000,0.00
2023/09/19,高雄市,左營區,新光里,6400300-042,120.303010946861,22.6773485555155,3.000,1,2.000,1,12.000,4,23.000,3,0.0000,3.00
2023/09/19,高雄市,苓雅區,福東里,6400800-056,120.337042971199,22.6211158853442,8.000,2,4.000,2,30.769,7,74.000,4,0.0000,8.00
2023/09/20,高雄市,苓雅區,林南里,6400800-032,120.318121492866,22.6236607781302,2.000,1,2.000,1,6.666,3,30.000,3,0.0000,2.00
2023/09/20,高雄市,左營區,新光里,6400300-042,120.303010946861,22.6773485555155,4.000,1,4.000,2,20.000,5,10.000,2,0.0000,4.00
2023/09/20,高雄市,大寮區,後庄里,6401400-010,120.390620367398,22.6379205771949,0.000,0,0.000,0,0.000,0,0.000,0,0.0000,0.00
2023/09/20,高雄市,三民區,鼎泰里,6400500-007,120.315713644991,22.6635537281643,8.000,2,4.000,2,22.222,6,120.000,5,0.0000,8.00
2023/09/20,高雄市,前鎮區,瑞竹里,6400900-046,120.320154267609,22.60125557969,2.000,1,2.000,1,5.000,2,8.000,2,0.0000,2.00
2023/09/20,高雄市,小港區,山明里,6401100-022,120.372016676726,22.5483760397007,12.000,3,10.000,3,33.333,8,109.000,5,0.0000,12.00
2023/09/20,高雄市,前鎮區,竹東里,6400900-041,120.324118613341,22.6110674671385,4.000,1,4.000,2,11.111,4,14.000,3,0.0000,4.00
2023/09/20,高雄市,小港區,濟南里,6401100-020,120.358973626891,22.572828591733,6.000,2,4.000,2,14.285,4,34.000,4,0.0000,6.00
2023/09/20,高雄市,苓雅區,英明里,6400800-046,120.326115660543,22.6133304992504,4.000,1,2.000,1,8.000,3,54.000,4,0.0600,4.00
2023/09/20,高雄市,三民區,達仁里,6400500-050,120.30504751018,22.6417965495071,10.000,3,8.000,3,22.727,6,100.000,4,0.0000,10.00
2023/09/20,高雄市,苓雅區,建軍里,6400800-068,120.342487624075,22.6328169275373,6.000,2,6.000,2,21.428,6,80.000,4,0.0000,6.00
2023/09/20,高雄市,三民區,正興里,6400500-038,120.318926456279,22.6463207067984,4.000,1,4.000,2,12.500,4,10.000,2,0.0000,4.00
2023/09/20,高雄市,楠梓區,享平里,6400400-004,120.329978482674,22.7295140182813,0.000,0,0.000,0,0.000,0,0.000,0,0.0000,0.00
2023/09/20,高雄市,楠梓區,加昌里,6400400-033,120.297198757136,22.7189554068796,0.000,0,0.000,0,0.000,0,0.000,0,0.0000,0.00
2023/09/20,高雄市,左營區,菜公里,6400300-043,120.31178326346,22.6780117583188,2.000,1,2.000,1,5.555,3,2.000,1,0.0000,2.00
2023/09/21,高雄市,左營區,福山里,6400300-044,120.31688893937,22.6853960803094,0.000,0,0.000,0,0.000,0,0.000,0,0.0000,0.00
2023/09/21,高雄市,鳳山區,五福里,6401200-043,120.326258579286,22.5902779810772,8.000,2,8.000,3,22.222,6,106.000,5,0.0000,8.00
2023/09/21,高雄市,楠梓區,裕昌里,6400400-031,120.288690004616,22.7181137144403,3.921,1,3.921,2,5.555,3,5.882,2,0.0000,3.92
2023/09/21,高雄市,鼓山區,明誠里,6400200-017,120.297928763669,22.6634651243903,0.000,0,0.000,0,0.000,0,0.000,0,0.0200,0.00
2023/09/21,高雄市,三民區,達勇里,6400500-051,120.304497019351,22.640280024862,4.000,1,4.000,2,11.764,4,12.000,3,0.0000,4.00
2023/09/21,高雄市,苓雅區,正大里,6400800-061,120.333152546275,22.629579094131,11.111,3,7.777,3,22.727,6,123.333,5,0.0222,11.11
2023/09/21,高雄市,苓雅區,福海里,6400800-051,120.330298506491,22.6217553898647,2.000,1,2.000,1,8.333,3,10.000,2,0.0000,2.00
2023/09/21,高雄市,苓雅區,正文里,6400800-059,120.327887997817,22.631913732279,13.725,3,9.803,3,36.842,8,117.647,5,0.0392,13.72
2023/09/21,高雄市,前鎮區,忠純里,6400900-024,120.303863556665,22.6031006247434,6.000,2,6.000,2,12.000,4,60.000,4,0.0000,6.00
2023/09/21,高雄市,鼓山區,忠正里,6400200-008,120.276929417969,22.6549457939232,2.000,1,2.000,1,5.263,2,40.000,4,0.0000,2.00
2023/09/21,高雄市,左營區,新光里,6400300-042,120.303010946861,22.6773485555155,2.000,1,2.000,1,5.555,3,10.000,2,0.0000,2.00
2023/09/21,高雄市,三民區,安發里,6400500-045,120.321273318774,22.6408244010109,4.000,1,4.000,2,10.526,4,14.000,3,0.0000,4.00
2023/09/22,高雄市,左營區,新光里,6400300-042,120.303010946861,22.6773485555155,6.000,2,4.000,2,37.500,8,20.000,3,0.0000,6.00
2023/09/22,高雄市,苓雅區,正大里,6400800-061,120.333152546275,22.629579094131,8.641,2,4.938,2,25.000,6,61.728,4,0.0617,8.64
2023/09/22,高雄市,苓雅區,建軍里,6400800-068,120.342487624075,22.6328169275373,3.296,1,3.296,1,8.108,3,60.439,4,0.0329,3.29
2023/09/22,高雄市,路竹區,文北里,6402400-013,120.247378667939,22.8624655068865,2.000,1,2.000,1,4.761,2,6.000,2,0.0000,2.00
2023/09/22,高雄市,三民區,寶盛里,6400500-026,120.328340892258,22.6378378872573,8.000,2,8.000,3,22.222,6,86.000,4,0.0000,8.00
2023/09/22,高雄市,新興區,順昌里,6400600-013,120.314968373296,22.6342364724023,2.000,1,2.000,1,6.666,3,4.000,2,0.0000,2.00
2023/09/22,高雄市,左營區,菜公里,6400300-043,120.31178326346,22.6780117583188,2.000,1,2.000,1,4.761,2,20.000,3,0.0000,2.00
2023/09/22,高雄市,左營區,新上里,6400300-040,120.308224914317,22.6621251399324,4.000,1,4.000,2,11.111,4,22.000,3,0.0000,4.00
2023/09/22,高雄市,左營區,新上里,6400300-040,120.308224914317,22.6621251399324,0.000,0,0.000,0,0.000,0,0.000,0,0.0000,0.00
2023/09/22,高雄市,仁武區,八卦里,6401700-009,120.336912597055,22.6852855841335,4.000,1,4.000,2,25.000,6,16.000,3,0.0000,4.00
2023/09/23,高雄市,鳥松區,大華里,6401800-003,120.340724307398,22.6568537712562,8.000,2,8.000,3,23.529,6,54.000,4,0.0000,8.00
2023/09/23,高雄市,左營區,新上里,6400300-040,120.308224914317,22.6621251399324,8.000,2,8.000,3,23.529,6,54.000,4,0.0200,8.00
2023/09/23,高雄市,左營區,菜公里,6400300-043,120.31178326346,22.6780117583188,2.000,1,2.000,1,25.000,6,2.000,1,0.0000,2.00
2023/09/23,高雄市,鳳山區,過埤里,6401200-040,120.363015132598,22.5984603438942,8.000,2,8.000,3,23.529,6,116.000,5,0.0000,8.00
2023/09/23,高雄市,鳳山區,福祥里,6401200-077,120.325500351956,22.5925950797911,4.000,1,2.000,1,12.500,4,16.000,3,0.0000,4.00
2023/09/23,高雄市,苓雅區,苓東里,6400800-006,120.294722380972,22.6121388366317,6.000,2,6.000,2,23.076,6,42.000,4,0.0000,6.00
2023/09/23,高雄市,鹽埕區,壽星里,6400100-004,120.28426150607,22.6303818602398,2.000,1,2.000,1,5.000,2,30.000,3,0.0000,2.00
2023/09/23,高雄市,鼓山區,明誠里,6400200-017,120.297928763669,22.6634651243903,4.000,1,2.000,1,8.695,3,50.000,4,0.1200,4.00
2023/09/23,高雄市,鹽埕區,府北里,6400100-017,120.285940584971,22.6282725967998,0.000,0,0.000,0,0.000,0,0.000,0,0.0000,0.00
2023/09/23,高雄市,三民區,達明里,6400500-049,120.305274145587,22.6445640862904,2.000,1,2.000,1,6.666,3,4.000,2,0.0000,2.00
2023/09/25,高雄市,苓雅區,林華里,6400800-028,120.32130247425,22.617212512727,18.000,3,12.000,3,52.941,9,194.000,5,0.0800,18.00
2023/09/25,高雄市,前鎮區,忠孝里,6400900-038,120.314325740597,22.6152656942116,4.000,1,4.000,2,8.333,3,140.000,5,0.0000,4.00
2023/09/25,高雄市,左營區,新光里,6400300-042,120.303010946861,22.6773485555155,2.000,1,2.000,1,8.333,3,10.000,2,0.0000,2.00
2023/09/25,高雄市,鳳山區,一甲里,6401200-028,120.337238854419,22.6006394913022,8.000,2,8.000,3,23.529,6,250.000,5,0.0400,8.00
2023/09/25,高雄市,路竹區,竹南里,6402400-019,120.260755798446,22.845244262894,12.000,3,8.000,3,26.086,6,106.000,5,0.1400,12.00
2023/09/25,高雄市,鹽埕區,博愛里,6400100-003,120.281896511502,22.6299659380896,0.000,0,0.000,0,0.000,0,0.000,0,0.0000,0.00
2023/09/25,高雄市,鼓山區,民強里,6400200-013,120.280299584492,22.6519069610492,2.000,1,2.000,1,6.666,3,4.000,2,0.0000,2.00
2023/09/25,高雄市,新興區,成功里,6400600-018,120.306221281896,22.6323522865146,6.000,2,6.000,2,16.666,5,18.000,3,0.0000,6.00
2023/09/25,高雄市,鳳山區,福祥里,6401200-077,120.325500351956,22.5925950797911,10.000,3,8.000,3,27.777,7,106.000,5,0.0000,10.00
2023/09/25,高雄市,鳳山區,誠智里,6401200-062,120.373544173735,22.616145678614,0.000,0,0.000,0,0.000,0,0.000,0,0.0000,0.00
2023/09/25,高雄市,左營區,菜公里,6400300-043,120.31178326346,22.6780117583188,2.000,1,2.000,1,6.666,3,10.000,2,0.0000,2.00
2023/09/25,高雄市,左營區,新上里,6400300-040,120.308224914317,22.6621251399324,2.000,1,2.000,1,3.125,2,2.000,1,0.0000,2.00
2023/09/25,高雄市,阿蓮區,清蓮里,6402300-007,120.326124096771,22.8782606697435,12.000,3,10.000,3,30.000,7,484.000,6,0.0000,12.00
2023/09/26,高雄市,鳳山區,二甲里,6401200-072,120.340365194283,22.5967376032008,0.000,0,0.000,0,0.000,0,0.000,0,0.0000,0.00
2023/09/26,高雄市,岡山區,平安里,6401900-001,120.294181547414,22.792769067706,2.000,1,2.000,1,7.142,3,6.000,2,0.0000,2.00
2023/09/26,高雄市,鼓山區,平和里,6400200-012,120.277677872996,22.651327682128,7.407,2,7.407,2,14.814,5,29.629,3,0.0000,7.40
2023/09/26,高雄市,三民區,本元里,6400500-012,120.334434087446,22.6525432528511,12.162,3,10.810,3,26.470,6,48.648,4,0.0000,12.16
2023/09/26,高雄市,小港區,山明里,6401100-022,120.372016676726,22.5483760397007,0.000,0,0.000,0,0.000,0,0.000,0,0.0000,0.00
2023/09/26,高雄市,鳳山區,天興里,6401200-032,120.330317655441,22.5931378475183,0.000,0,0.000,0,0.000,0,0.000,0,0.0000,0.00
2023/09/26,高雄市,左營區,新下里,6400300-039,120.299510729206,22.6711867566794,0.000,0,0.000,0,0.000,0,0.000,0,0.0000,0.00
2023/09/26,高雄市,三民區,安發里,6400500-045,120.321273318774,22.6408244010109,8.000,2,8.000,3,22.222,6,89.333,4,0.0000,8.00
2023/09/26,高雄市,三民區,灣子里,6400500-031,120.317739515641,22.6558296164736,10.000,3,10.000,3,27.777,7,126.000,5,0.0000,10.00
2023/09/26,高雄市,楠梓區,和昌里,6400400-027,120.294613167624,22.7084680672459,1.724,1,1.724,1,5.000,2,1.724,1,0.0000,1.72
2023/09/26,高雄市,楠梓區,隆昌里,6400400-029,120.293619018959,22.7111971466965,2.000,1,2.000,1,7.142,3,20.000,3,0.0000,2.00
2023/09/26,高雄市,前鎮區,忠孝里,6400900-038,120.314325740597,22.6152656942116,3.636,1,3.636,2,9.090,3,60.000,4,0.0000,3.63
2023/09/26,高雄市,小港區,桂林里,6401100-031,120.354023452103,22.5806163279836,4.000,1,2.000,1,12.500,4,12.000,3,0.0000,4.00
2023/09/26,高雄市,前鎮區,鎮海里,6400900-019,120.31716475852,22.5905845934522,0.000,0,0.000,0,0.000,0,0.000,0,0.0000,0.00
2023/09/27,高雄市,前金區,文西里,6400700-019,120.298268173522,22.6204207466002,6.000,2,6.000,2,15.000,5,34.000,4,0.0000,6.00
2023/09/27,高雄市,苓雅區,意誠里,6400800-010,120.301713609944,22.6123071663228,6.000,2,4.000,2,21.428,6,20.000,3,0.0000,6.00
2023/09/27,高雄市,三民區,鼎泰里,6400500-007,120.315713644991,22.6635537281643,6.000,2,6.000,2,15.000,5,28.000,3,0.0000,6.00
2023/09/27,高雄市,鹽埕區,府北里,6400100-017,120.285940584971,22.6282725967998,2.000,1,2.000,1,6.250,3,40.000,4,0.0000,2.00
2023/09/27,高雄市,鹽埕區,教仁里,6400100-006,120.28052222378,22.6260344293701,10.000,3,10.000,3,31.250,7,68.000,4,0.0000,10.00
2023/09/27,高雄市,鼓山區,光榮里,6400200-004,120.280873671054,22.6581136544849,9.000,2,7.000,2,29.032,7,66.000,4,0.0100,9.00
2023/09/27,高雄市,楠梓區,翠屏里,6400400-014,120.303801786057,22.727704974475,10.000,3,10.000,3,31.250,7,114.000,5,0.0400,10.00
2023/09/27,高雄市,左營區,新光里,6400300-042,120.303010946861,22.6773485555155,2.000,1,2.000,1,50.000,9,4.000,2,0.0000,2.00
2023/09/27,高雄市,鳳山區,南成里,6401200-055,120.342891135404,22.5894758266154,8.000,2,8.000,3,23.529,6,48.000,4,0.0400,8.00
2023/09/27,高雄市,鳳山區,中和里,6401200-008,120.346870407089,22.6266337764999,4.000,1,4.000,2,13.333,4,30.000,3,0.0000,4.00
2023/09/27,高雄市,鳳山區,縣衙里,6401200-010,120.357953340804,22.6266154268236,2.000,1,2.000,1,5.555,3,30.000,3,0.0000,2.00
2023/09/27,高雄市,鼓山區,民強里,6400200-013,120.280299584492,22.6519069610492,8.620,2,6.896,2,23.809,6,232.758,5,0.0000,8.62
2023/09/27,高雄市,鼓山區,華豐里,6400200-018,120.295878159141,22.6680225306275,2.000,1,2.000,1,6.250,3,4.000,2,0.0000,2.00
2023/09/28,高雄市,鼓山區,華豐里,6400200-018,120.295878159141,22.6680225306275,2.000,1,2.000,1,5.555,3,4.000,2,0.0000,2.00
2023/09/28,高雄市,鼓山區,龍子里,6400200-015,120.298611957205,22.6561209147425,6.000,2,6.000,2,15.000,5,24.000,3,0.0000,6.00
2023/09/28,高雄市,三民區,達仁里,6400500-050,120.30504751018,22.6417965495071,0.000,0,0.000,0,0.000,0,0.000,0,0.0000,0.00
2023/09/28,高雄市,苓雅區,正文里,6400800-059,120.327887997817,22.631913732279,0.000,0,0.000,0,0.000,0,0.000,0,0.0000,0.00
