Date,County,Town,Village,VillageID,VillageLon,VillageLat,BI,BILv,HI,HILv,CI,CILv,LI,LILv,AI,Con100HH
2024/04/01,高雄市,小港區,港明里,6401100-005,120.332126697236,22.569126077603,0.000,0,0.000,0,0.000,0,0.000,0,0.0000,0.00
2024/04/01,高雄市,前鎮區,建隆里,6400900-030,120.305923863233,22.6049377914673,0.000,0,0.000,0,0.000,0,0.000,0,0.0000,0.00
2024/04/01,高雄市,楠梓區,中陽里,6400400-005,120.327924750888,22.7224205555094,0.000,0,0.000,0,0.000,0,0.000,0,0.0000,0.00
2024/04/01,高雄市,前鎮區,忠誠里,6400900-025,120.315099353518,22.6006694821363,0.000,0,0.000,0,0.000,0,0.000,0,0.0000,0.00
2024/04/01,高雄市,前鎮區,民權里,6400900-029,120.313637813638,22.6079856636116,0.000,0,0.000,0,0.000,0,0.000,0,0.0000,0.00
2024/04/01,高雄市,前鎮區,民權里,6400900-029,120.313637813638,22.6079856636116,0.000,0,0.000,0,0.000,0,0.000,0,0.0000,0.00
2024/04/01,高雄市,前鎮區,瑞隆里,6400900-053,120.334694524708,22.6046310860089,2.000,1,2.000,1,11.111,4,20.000,3,0.0000,2.00
2024/04/01,高雄市,前金區,長城里,6400700-003,120.295178776483,22.6341933408743,0.000,0,0.000,0,0.000,0,0.000,0,0.0000,0.00
2024/04/01,高雄市,三民區,博惠里,6400500-073,120.31694864592,22.6365727546477,2.000,1,2.000,1,7.692,3,10.000,2,0.0000,2.00
2024/04/01,高雄市,左營區,福山里,6400300-044,120.31688893937,22.6853960803094,0.000,0,0.000,0,0.000,0,0.000,0,0.0000,0.00
2024/04/01,高雄市,鳳山區,文山里,6401200-048,120.359541214015,22.6421832358072,0.000,0,0.000,0,0.000,0,0.000,0,0.0000,0.00
2024/04/01,高雄市,鹽埕區,中山里,6400100-005,120.2820406484,22.6273598458717,0.000,0,0.000,0,0.000,0,0.000,0,0.0000,0.00
2024/04/01,高雄市,鹽埕區,新樂里,6400100-007,120.283491873782,22.6248373222224,0.000,0,0.000,0,0.000,0,0.000,0,0.0000,0.00
2024/04/01,高雄市,鼓山區,內惟里,6400200-006,120.279135776638,22.6612783548734,2.000,1,2.000,1,12.500,4,6.000,2,0.0000,2.00
2024/04/02,高雄市,左營區,海勝里,6400300-032,120.290489199325,22.67285078766,0.000,0,0.000,0,0.000,0,0.000,0,0.0000,0.00
2024/04/02,高雄市,三民區,博惠里,6400500-073,120.31694864592,22.6365727546477,2.000,1,2.000,1,5.882,3,2.000,1,0.0000,2.00
2024/04/02,高雄市,前鎮區,瑞興里,6400900-057,120.330449910669,22.6079736076647,4.000,1,4.000,2,28.571,7,26.000,3,0.0000,4.00
2024/04/02,高雄市,前鎮區,西山里,6400900-028,120.31069254369,22.6096346253188,1.000,1,1.000,1,6.666,3,0.000,0,0.0000,1.00
2024/04/02,高雄市,楠梓區,中陽里,6400400-005,120.327924750888,22.7224205555094,0.000,0,0.000,0,0.000,0,0.000,0,0.0000,0.00
2024/04/02,高雄市,鼓山區,光榮里,6400200-004,120.280873671054,22.6581136544849,0.000,0,0.000,0,0.000,0,0.000,0,0.0000,0.00
2024/04/02,高雄市,楠梓區,泰昌里,6400400-023,120.285905183896,22.7142503038407,0.000,0,0.000,0,0.000,0,0.000,0,0.0000,0.00
2024/04/02,高雄市,前鎮區,鎮北里,6400900-023,120.296097766587,22.5977889383699,0.666,1,0.666,1,3.333,2,2.666,1,0.0000,0.66
2024/04/02,高雄市,小港區,港墘里,6401100-004,120.334788234449,22.5669993663333,0.000,0,0.000,0,0.000,0,0.000,0,0.0000,0.00
2024/04/03,高雄市,三民區,灣子里,6400500-031,120.317739515641,22.6558296164736,0.000,0,0.000,0,0.000,0,0.000,0,0.0000,0.00
2024/04/03,高雄市,左營區,中南里,6400300-005,120.293987829998,22.6847700058847,0.000,0,0.000,0,0.000,0,0.000,0,0.0000,0.00
2024/04/03,高雄市,鳳山區,文德里,6401200-039,120.350936651088,22.6438998029759,0.000,0,0.000,0,0.000,0,0.000,0,0.0000,0.00
2024/04/03,高雄市,鳳山區,南成里,6401200-055,120.342891135404,22.5894758266154,0.000,0,0.000,0,0.000,0,0.000,0,0.0000,0.00
2024/04/03,高雄市,前鎮區,忠純里,6400900-024,120.303863556665,22.6031006247434,1.000,1,1.000,1,5.882,3,3.000,1,0.0000,1.00
2024/04/03,高雄市,前鎮區,鎮中里,6400900-022,120.30672500653,22.5886783701039,0.000,0,0.000,0,0.000,0,0.000,0,0.0000,0.00
2024/04/03,高雄市,前鎮區,鎮陽里,6400900-020,120.30874566653,22.5915385353213,0.000,0,0.000,0,0.000,0,0.000,0,0.0000,0.00
2024/04/03,高雄市,小港區,港后里,6401100-006,120.334580906575,22.5708546629345,0.000,0,0.000,0,0.000,0,0.000,0,0.0000,0.00
2024/04/03,高雄市,三民區,博惠里,6400500-073,120.31694864592,22.6365727546477,2.000,1,2.000,1,4.761,2,20.000,3,0.0000,2.00
2024/04/03,高雄市,大寮區,永芳里,6401400-019,120.399189880089,22.6089315470304,4.000,1,4.000,2,12.500,4,206.000,5,0.0000,4.00
2024/04/03,高雄市,楠梓區,加昌里,6400400-033,120.297198757136,22.7189554068796,0.000,0,0.000,0,0.000,0,0.000,0,0.0000,0.00
2024/04/03,高雄市,左營區,聖后里,6400300-022,120.291871195689,22.6848737205448,4.000,1,2.000,1,12.500,4,40.000,4,0.0000,4.00
2024/04/03,高雄市,鼓山區,厚生里,6400200-014,120.279414571287,22.6464193893687,0.000,0,0.000,0,0.000,0,0.000,0,0.0000,0.00
2024/04/03,高雄市,鳳山區,大德里,6401200-057,120.332293913807,22.5894412055356,0.000,0,0.000,0,0.000,0,0.000,0,0.0000,0.00
2024/04/03,高雄市,鳳山區,新樂里,6401200-067,120.341981384538,22.6095138770689,0.000,0,0.000,0,0.000,0,0.000,0,0.0000,0.00
2024/04/04,高雄市,大寮區,永芳里,6401400-019,120.399189880089,22.6089315470304,6.666,2,5.555,2,13.953,4,244.444,5,0.0000,6.66
2024/04/04,高雄市,楠梓區,建昌里,6400400-025,120.291364672664,22.7134342138207,0.000,0,0.000,0,0.000,0,0.000,0,0.0000,0.00
2024/04/05,高雄市,三民區,興德里,6400500-076,120.29501350244,22.6364308663666,0.000,0,0.000,0,0.000,0,0.000,0,0.0000,0.00
2024/04/05,高雄市,前鎮區,竹中里,6400900-045,120.320450183768,22.6140442357205,0.000,0,0.000,0,0.000,0,0.000,0,0.0000,0.00
2024/04/05,高雄市,左營區,城南里,6400300-025,120.289725777416,22.6827340767695,4.000,1,4.000,2,14.285,4,186.000,5,0.0000,4.00
2024/04/05,高雄市,左營區,聖后里,6400300-022,120.291871195689,22.6848737205448,0.000,0,0.000,0,0.000,0,0.000,0,0.0000,0.00
2024/04/05,高雄市,前鎮區,竹南里,6400900-042,120.319236991788,22.6063959198146,0.000,0,0.000,0,0.000,0,0.000,0,0.0000,0.00
2024/04/06,高雄市,大寮區,永芳里,6401400-019,120.399189880089,22.6089315470304,2.000,1,2.000,1,5.000,2,4.000,2,0.0000,2.00
2024/04/07,高雄市,左營區,聖后里,6400300-022,120.291871195689,22.6848737205448,0.000,0,0.000,0,0.000,0,0.000,0,0.0000,0.00
2024/04/07,高雄市,前鎮區,竹南里,6400900-042,120.319236991788,22.6063959198146,0.000,0,0.000,0,0.000,0,0.000,0,0.0000,0.00
2024/04/08,高雄市,前鎮區,竹南里,6400900-042,120.319236991788,22.6063959198146,0.000,0,0.000,0,0.000,0,0.000,0,0.0000,0.00
2024/04/08,高雄市,小港區,高松里,6401100-023,120.37940280478,22.5742477464794,0.000,0,0.000,0,0.000,0,0.000,0,0.0000,0.00
2024/04/08,高雄市,左營區,中北里,6400300-004,120.293182025799,22.6860964739459,1.785,1,1.785,1,5.000,2,26.785,3,0.0000,1.78
2024/04/08,高雄市,左營區,進學里,6400300-001,120.295109310707,22.6919596929904,2.000,1,2.000,1,4.545,2,2.000,1,0.0000,2.00
2024/04/08,高雄市,楠梓區,清豐里,6400400-001,120.331135228679,22.7441569161639,0.000,0,0.000,0,0.000,0,0.000,0,0.0000,0.00
2024/04/08,高雄市,鳳山區,國光里,6401200-037,120.34907160593,22.6181474491111,0.000,0,0.000,0,0.000,0,0.000,0,0.0000,0.00
2024/04/08,高雄市,左營區,聖后里,6400300-022,120.291871195689,22.6848737205448,0.000,0,0.000,0,0.000,0,0.000,0,0.0000,0.00
2024/04/08,高雄市,左營區,廍南里,6400300-028,120.287051889513,22.6834750764609,2.000,1,2.000,1,7.142,3,16.000,3,0.0000,2.00
2024/04/08,高雄市,左營區,埤西里,6400300-029,120.288005948693,22.6810963087281,6.000,2,2.000,1,15.789,5,50.000,4,0.0000,6.00
2024/04/08,高雄市,前鎮區,鎮陽里,6400900-020,120.30874566653,22.5915385353213,0.000,0,0.000,0,0.000,0,0.000,0,0.0000,0.00
2024/04/08,高雄市,鼓山區,明誠里,6400200-017,120.297928763669,22.6634651243903,0.000,0,0.000,0,0.000,0,0.000,0,0.0000,0.00
2024/04/08,高雄市,楠梓區,惠楠里,6400400-006,120.325888927062,22.7270821570086,0.000,0,0.000,0,0.000,0,0.000,0,0.0000,0.00
2024/04/08,高雄市,鳳山區,新強里,6401200-033,120.341365282297,22.6171981687649,0.000,0,0.000,0,0.000,0,0.000,0,0.0000,0.00
2024/04/09,高雄市,鳳山區,新甲里,6401200-025,120.343096832934,22.6075722637709,0.000,0,0.000,0,0.000,0,0.000,0,0.0000,0.00
2024/04/09,高雄市,鳳山區,誠智里,6401200-062,120.373544173735,22.616145678614,0.000,0,0.000,0,0.000,0,0.000,0,0.0000,0.00
2024/04/09,高雄市,前鎮區,興邦里,6400900-021,120.312161931283,22.5960418499661,0.000,0,0.000,0,0.000,0,0.000,0,0.0000,0.00
2024/04/09,高雄市,前鎮區,竹內里,6400900-040,120.323408211366,22.6088667841226,0.000,0,0.000,0,0.000,0,0.000,0,0.0000,0.00
2024/04/09,高雄市,左營區,頂北里,6400300-003,120.292397648623,22.6877495483445,0.000,0,0.000,0,0.000,0,0.000,0,0.0000,0.00
2024/04/09,高雄市,鼓山區,內惟里,6400200-006,120.279135776638,22.6612783548734,0.000,0,0.000,0,0.000,0,0.000,0,0.0000,0.00
2024/04/09,高雄市,三民區,寶興里,6400500-019,120.328950647764,22.6439889388348,0.000,0,0.000,0,0.000,0,0.000,0,0.0000,0.00
2024/04/09,高雄市,楠梓區,中和里,6400400-037,120.268885357471,22.7227306260075,0.000,0,0.000,0,0.000,0,0.000,0,0.0000,0.00
2024/04/09,高雄市,左營區,頂西里,6400300-021,120.290915248041,22.6864603651074,3.773,1,3.773,2,10.000,4,75.471,4,0.0000,3.77
2024/04/09,高雄市,鳳山區,新富里,6401200-036,120.345148324215,22.6150752842265,0.000,0,0.000,0,0.000,0,0.000,0,0.0000,0.00
2024/04/09,高雄市,三民區,本安里,6400500-013,120.338028840921,22.6490595822713,0.000,0,0.000,0,0.000,0,0.000,0,0.0000,0.00
2024/04/09,高雄市,左營區,中南里,6400300-005,120.293987829998,22.6847700058847,0.000,0,0.000,0,0.000,0,0.000,0,0.0000,0.00
2024/04/10,高雄市,左營區,果貿里,6400300-036,120.288399956382,22.6712708099325,0.000,0,0.000,0,0.000,0,0.000,0,0.0000,0.00
2024/04/10,高雄市,鼓山區,民族里,6400200-005,120.280396878222,22.6636651663097,0.000,0,0.000,0,0.000,0,0.000,0,0.0000,0.00
2024/04/10,高雄市,前鎮區,鎮榮里,6400900-017,120.311012095109,22.5897345435935,2.000,1,2.000,1,10.000,4,40.000,4,0.0000,2.00
2024/04/10,高雄市,前鎮區,竹南里,6400900-042,120.319236991788,22.6063959198146,0.000,0,0.000,0,0.000,0,0.000,0,0.0000,0.00
2024/04/10,高雄市,鳳山區,海洋里,6401200-065,120.34719367836,22.6127133290113,0.000,0,0.000,0,0.000,0,0.000,0,0.0000,0.00
2024/04/10,高雄市,楠梓區,仁昌里,6400400-034,120.294119259652,22.7235703036406,0.000,0,0.000,0,0.000,0,0.000,0,0.0000,0.00
2024/04/10,高雄市,左營區,廟東里,6400300-006,120.294569270644,22.6866320894698,0.943,1,0.943,1,1.298,1,0.943,1,0.0000,0.94
2024/04/10,高雄市,左營區,聖南里,6400300-024,120.290138676364,22.6841502667801,3.448,1,3.448,1,3.921,2,20.689,3,0.0172,3.44
2024/04/10,高雄市,前鎮區,竹東里,6400900-041,120.324118613341,22.6110674671385,0.000,0,0.000,0,0.000,0,0.000,0,0.0000,0.00
2024/04/10,高雄市,前鎮區,瑞隆里,6400900-053,120.334694524708,22.6046310860089,0.000,0,0.000,0,0.000,0,0.000,0,0.0000,0.00
2024/04/11,高雄市,前鎮區,竹內里,6400900-040,120.323408211366,22.6088667841226,0.000,0,0.000,0,0.000,0,0.000,0,0.0000,0.00
2024/04/11,高雄市,左營區,城南里,6400300-025,120.289725777416,22.6827340767695,4.000,1,4.000,2,8.695,3,14.000,3,0.0200,4.00
2024/04/11,高雄市,鳳山區,福興里,6401200-029,120.327418777294,22.5874484822116,0.000,0,0.000,0,0.000,0,0.000,0,0.0000,0.00
2024/04/11,高雄市,鳳山區,一甲里,6401200-028,120.337238854419,22.6006394913022,0.000,0,0.000,0,0.000,0,0.000,0,0.0000,0.00
2024/04/11,高雄市,鳳山區,鎮西里,6401200-012,120.354329405051,22.6290261192331,0.000,0,0.000,0,0.000,0,0.000,0,0.0000,0.00
2024/04/11,高雄市,小港區,港南里,6401100-007,120.337184153881,22.5662706037575,0.000,0,0.000,0,0.000,0,0.000,0,0.0000,0.00
2024/04/11,高雄市,鼓山區,光榮里,6400200-004,120.280873671054,22.6581136544849,0.000,0,0.000,0,0.000,0,0.000,0,0.0000,0.00
2024/04/11,高雄市,左營區,果惠里,6400300-037,120.287933605791,22.6702082301656,0.000,0,0.000,0,0.000,0,0.000,0,0.0000,0.00
2024/04/12,高雄市,左營區,果峰里,6400300-038,120.288139776658,22.6691707134802,0.000,0,0.000,0,0.000,0,0.000,0,0.0000,0.00
2024/04/12,高雄市,鼓山區,前峰里,6400200-003,120.283425262634,22.6642642171346,0.000,0,0.000,0,0.000,0,0.000,0,0.0000,0.00
2024/04/12,高雄市,小港區,港口里,6401100-002,120.327216753071,22.5625177867136,0.000,0,0.000,0,0.000,0,0.000,0,0.0000,0.00
2024/04/12,高雄市,前鎮區,草衙里,6400900-001,120.3239204207,22.5728145437726,2.000,1,2.000,1,6.250,3,8.000,2,0.0000,2.00
2024/04/12,高雄市,前鎮區,草衙里,6400900-001,120.3239204207,22.5728145437726,2.000,1,2.000,1,5.555,3,8.000,2,0.0000,2.00
2024/04/12,高雄市,鳳山區,東門里,6401200-030,120.372248584003,22.6232925760191,0.000,0,0.000,0,0.000,0,0.000,0,0.0000,0.00
2024/04/12,高雄市,前鎮區,竹內里,6400900-040,120.323408211366,22.6088667841226,0.000,0,0.000,0,0.000,0,0.000,0,0.0000,0.00
2024/04/12,高雄市,前鎮區,竹東里,6400900-041,120.324118613341,22.6110674671385,0.000,0,0.000,0,0.000,0,0.000,0,0.0000,0.00
2024/04/12,高雄市,前鎮區,竹中里,6400900-045,120.320450183768,22.6140442357205,0.000,0,0.000,0,0.000,0,0.000,0,0.0000,0.00
2024/04/12,高雄市,旗津區,旗下里,6401000-001,120.265172490521,22.6137998286386,0.000,0,0.000,0,0.000,0,0.000,0,0.0000,0.00
2024/04/13,高雄市,楠梓區,翠屏里,6400400-014,120.303801786057,22.727704974475,0.000,0,0.000,0,0.000,0,0.000,0,0.0000,0.00
2024/04/15,高雄市,楠梓區,東寧里,6400400-002,120.329525796606,22.7332760887877,0.000,0,0.000,0,0.000,0,0.000,0,0.0000,0.00
2024/04/15,高雄市,小港區,高松里,6401100-023,120.37940280478,22.5742477464794,0.000,0,0.000,0,0.000,0,0.000,0,0.0000,0.00
2024/04/15,高雄市,鳳山區,興中里,6401200-004,120.354034321052,22.6224631086039,0.000,0,0.000,0,0.000,0,0.000,0,0.0000,0.00
2024/04/15,高雄市,新興區,南港里,6400600-022,120.30682347262,22.6353950364315,0.000,0,0.000,0,0.000,0,0.000,0,0.0000,0.00
2024/04/15,高雄市,前鎮區,竹東里,6400900-041,120.324118613341,22.6110674671385,0.000,0,0.000,0,0.000,0,0.000,0,0.0000,0.00
2024/04/15,高雄市,小港區,順苓里,6401100-015,120.356551896071,22.5676249078958,0.000,0,0.000,0,0.000,0,0.000,0,0.0000,0.00
2024/04/15,高雄市,左營區,莒光里,6400300-015,120.294649663838,22.7035922110486,0.000,0,0.000,0,0.000,0,0.000,0,0.0000,0.00
2024/04/15,高雄市,三民區,安吉里,6400500-044,120.315980893027,22.6429012053707,0.000,0,0.000,0,0.000,0,0.000,0,0.0000,0.00
2024/04/15,高雄市,鼓山區,民強里,6400200-013,120.280299584492,22.6519069610492,0.000,0,0.000,0,0.000,0,0.000,0,0.0000,0.00
2024/04/15,高雄市,鳳山區,忠孝里,6401200-044,120.347462585239,22.6310855088349,0.000,0,0.000,0,0.000,0,0.000,0,0.0000,0.00
2024/04/15,高雄市,鳳山區,忠誠里,6401200-024,120.36735399154,22.6441794291024,0.000,0,0.000,0,0.000,0,0.000,0,0.0000,0.00
2024/04/15,高雄市,鳳山區,國富里,6401200-063,120.349782024146,22.6160079374717,0.000,0,0.000,0,0.000,0,0.000,0,0.0000,0.00
2024/04/16,高雄市,鳳山區,誠義里,6401200-020,120.361489482054,22.6128189506407,0.000,0,0.000,0,0.000,0,0.000,0,0.0000,0.00
2024/04/16,高雄市,三民區,灣興里,6400500-040,120.312428376621,22.653409610273,0.000,0,0.000,0,0.000,0,0.000,0,0.0000,0.00
2024/04/16,高雄市,前鎮區,竹西里,6400900-044,120.319590257702,22.6101500127087,0.000,0,0.000,0,0.000,0,0.000,0,0.0000,0.00
2024/04/16,高雄市,鳳山區,興仁里,6401200-042,120.355939574952,22.6221043223902,0.000,0,0.000,0,0.000,0,0.000,0,0.0000,0.00
2024/04/16,高雄市,鳳山區,福誠里,6401200-049,120.324306140127,22.5946341776127,0.000,0,0.000,0,0.000,0,0.000,0,0.0000,0.00
2024/04/16,高雄市,鳳山區,海光里,6401200-022,120.371826570678,22.6329779327787,0.000,0,0.000,0,0.000,0,0.000,0,0.0000,0.00
2024/04/16,高雄市,前鎮區,鎮東里,6400900-016,120.310283640762,22.5921481413782,0.000,0,0.000,0,0.000,0,0.000,0,0.0000,0.00
2024/04/16,高雄市,前鎮區,鎮東里,6400900-016,120.310283640762,22.5921481413782,0.000,0,0.000,0,0.000,0,0.000,0,0.0000,0.00
2024/04/16,高雄市,楠梓區,東寧里,6400400-002,120.329525796606,22.7332760887877,0.000,0,0.000,0,0.000,0,0.000,0,0.0000,0.00
2024/04/16,高雄市,三民區,鼎盛里,6400500-002,120.324351618207,22.6754605292645,0.000,0,0.000,0,0.000,0,0.000,0,0.0000,0.00
2024/04/16,高雄市,三民區,寶國里,6400500-022,120.339434645291,22.6413523309642,0.000,0,0.000,0,0.000,0,0.000,0,0.0000,0.00
2024/04/16,高雄市,左營區,尾北里,6400300-009,120.302673128867,22.6877706917203,0.000,0,0.000,0,0.000,0,0.000,0,0.0000,0.00
2024/04/16,高雄市,楠梓區,錦屏里,6400400-009,120.31180873815,22.7167725765024,0.000,0,0.000,0,0.000,0,0.000,0,0.0000,0.00
2024/04/16,高雄市,三民區,灣愛里,6400500-032,120.319613193373,22.6590415789439,0.000,0,0.000,0,0.000,0,0.000,0,0.0000,0.00
2024/04/16,高雄市,三民區,灣勝里,6400500-035,120.322921138597,22.6517019672004,0.000,0,0.000,0,0.000,0,0.000,0,0.0000,0.00
2024/04/16,高雄市,三民區,灣復里,6400500-037,120.316136826295,22.6511391663978,0.000,0,0.000,0,0.000,0,0.000,0,0.0000,0.00
2024/04/16,高雄市,鼓山區,光化里,6400200-025,120.279226006527,22.6325520373303,0.000,0,0.000,0,0.000,0,0.000,0,0.0000,0.00
2024/04/17,高雄市,楠梓區,廣昌里,6400400-018,120.286490484147,22.7080348633628,0.000,0,0.000,0,0.000,0,0.000,0,0.0000,0.00
2024/04/17,高雄市,鹽埕區,府北里,6400100-017,120.285940584971,22.6282725967998,0.000,0,0.000,0,0.000,0,0.000,0,0.0000,0.00
2024/04/17,高雄市,楠梓區,東寧里,6400400-002,120.329525796606,22.7332760887877,0.000,0,0.000,0,0.000,0,0.000,0,0.0000,0.00
2024/04/17,高雄市,楠梓區,清豐里,6400400-001,120.331135228679,22.7441569161639,2.000,1,2.000,1,5.000,2,4.000,2,0.0000,2.00
2024/04/17,高雄市,左營區,廟北里,6400300-007,120.295305997822,22.6875294683571,0.000,0,0.000,0,0.000,0,0.000,0,0.0000,0.00
2024/04/17,高雄市,鳳山區,富榮里,6401200-074,120.336852654158,22.5964894498481,0.000,0,0.000,0,0.000,0,0.000,0,0.0000,0.00
2024/04/17,高雄市,前鎮區,竹內里,6400900-040,120.323408211366,22.6088667841226,0.000,0,0.000,0,0.000,0,0.000,0,0.0000,0.00
2024/04/17,高雄市,旗津區,旗下里,6401000-001,120.265172490521,22.6137998286386,0.000,0,0.000,0,0.000,0,0.000,0,0.0000,0.00
2024/04/17,高雄市,三民區,寶玉里,6400500-030,120.334359802636,22.6472108059855,0.000,0,0.000,0,0.000,0,0.000,0,0.0000,0.00
2024/04/17,高雄市,楠梓區,加昌里,6400400-033,120.297198757136,22.7189554068796,0.000,0,0.000,0,0.000,0,0.000,0,0.0000,0.00
2024/04/17,高雄市,鳳山區,五福里,6401200-043,120.326258579286,22.5902779810772,0.000,0,0.000,0,0.000,0,0.000,0,0.0000,0.00
2024/04/17,高雄市,鼓山區,平和里,6400200-012,120.277677872996,22.651327682128,0.000,0,0.000,0,0.000,0,0.000,0,0.0000,0.00
2024/04/17,高雄市,鳳山區,忠誠里,6401200-024,120.36735399154,22.6441794291024,0.000,0,0.000,0,0.000,0,0.000,0,0.0000,0.00
2024/04/18,高雄市,左營區,聖后里,6400300-022,120.291871195689,22.6848737205448,0.000,0,0.000,0,0.000,0,0.000,0,0.0000,0.00
2024/04/18,高雄市,三民區,正興里,6400500-038,120.318926456279,22.6463207067984,0.000,0,0.000,0,0.000,0,0.000,0,0.0000,0.00
2024/04/18,高雄市,旗津區,旗下里,6401000-001,120.265172490521,22.6137998286386,0.000,0,0.000,0,0.000,0,0.000,0,0.0000,0.00
2024/04/18,高雄市,前鎮區,瑞隆里,6400900-053,120.334694524708,22.6046310860089,0.000,0,0.000,0,0.000,0,0.000,0,0.0000,0.00
2024/04/18,高雄市,前鎮區,瑞崗里,6400900-056,120.330066107481,22.606107646196,0.000,0,0.000,0,0.000,0,0.000,0,0.0000,0.00
2024/04/18,高雄市,前鎮區,瑞西里,6400900-055,120.326637716724,22.6065774625947,0.000,0,0.000,0,0.000,0,0.000,0,0.0000,0.00
2024/04/18,高雄市,小港區,正苓里,6401100-014,120.352857008023,22.5679807455888,0.000,0,0.000,0,0.000,0,0.000,0,0.0000,0.00
2024/04/18,高雄市,旗津區,永安里,6401000-002,120.26646295186,22.6118079890027,0.000,0,0.000,0,0.000,0,0.000,0,0.0000,0.00
2024/04/18,高雄市,前金區,東金里,6400700-005,120.294273887159,22.6307538911318,0.000,0,0.000,0,0.000,0,0.000,0,0.0000,0.00
2024/04/18,高雄市,鼓山區,正德里,6400200-011,120.269435481657,22.6490200829927,0.000,0,0.000,0,0.000,0,0.000,0,0.0000,0.00
2024/04/19,高雄市,鼓山區,忠正里,6400200-008,120.276929417969,22.6549457939232,0.000,0,0.000,0,0.000,0,0.000,0,0.0000,0.00
2024/04/19,高雄市,三民區,鼎泰里,6400500-007,120.315713644991,22.6635537281643,0.000,0,0.000,0,0.000,0,0.000,0,0.0000,0.00
2024/04/19,高雄市,三民區,安康里,6400500-042,120.318048754824,22.6392415578089,0.000,0,0.000,0,0.000,0,0.000,0,0.0000,0.00
2024/04/19,高雄市,三民區,灣愛里,6400500-032,120.319613193373,22.6590415789439,0.000,0,0.000,0,0.000,0,0.000,0,0.0000,0.00
2024/04/19,高雄市,新興區,玉衡里,6400600-012,120.302801314494,22.625407414525,0.000,0,0.000,0,0.000,0,0.000,0,0.0000,0.00
2024/04/19,高雄市,左營區,廟北里,6400300-007,120.295305997822,22.6875294683571,2.000,1,2.000,1,6.250,3,6.000,2,0.0000,2.00
2024/04/19,高雄市,前鎮區,忠孝里,6400900-038,120.314325740597,22.6152656942116,0.000,0,0.000,0,0.000,0,0.000,0,0.0000,0.00
2024/04/19,高雄市,苓雅區,五權里,6400800-041,120.322666144869,22.631852183124,4.000,1,2.000,1,6.666,3,16.000,3,0.0000,4.00
2024/04/19,高雄市,小港區,順苓里,6401100-015,120.356551896071,22.5676249078958,0.000,0,0.000,0,0.000,0,0.000,0,0.0000,0.00
2024/04/19,高雄市,前鎮區,竹內里,6400900-040,120.323408211366,22.6088667841226,0.000,0,0.000,0,0.000,0,0.000,0,0.0000,0.00
2024/04/19,高雄市,前鎮區,竹西里,6400900-044,120.319590257702,22.6101500127087,0.000,0,0.000,0,0.000,0,0.000,0,0.0000,0.00
2024/04/19,高雄市,前金區,社西里,6400700-015,120.29194018691,22.6232465251175,0.000,0,0.000,0,0.000,0,0.000,0,0.0000,0.00
2024/04/19,高雄市,旗津區,旗下里,6401000-001,120.265172490521,22.6137998286386,0.000,0,0.000,0,0.000,0,0.000,0,0.0000,0.00
2024/04/19,高雄市,左營區,頂北里,6400300-003,120.292397648623,22.6877495483445,1.162,1,1.162,1,2.439,1,2.325,1,0.0000,1.16
2024/04/19,高雄市,鳳山區,新泰里,6401200-068,120.344484745715,22.6109994979764,0.000,0,0.000,0,0.000,0,0.000,0,0.0000,0.00
2024/04/20,高雄市,鳳山區,五福里,6401200-043,120.326258579286,22.5902779810772,0.000,0,0.000,0,0.000,0,0.000,0,0.0000,0.00
2024/04/20,高雄市,苓雅區,正言里,6400800-060,120.326722579976,22.6303390886343,4.000,1,4.000,2,20.000,5,30.000,3,0.0000,4.00
2024/04/20,高雄市,苓雅區,五權里,6400800-041,120.322666144869,22.631852183124,6.557,2,6.557,2,13.793,4,216.393,5,0.0163,6.55
2024/04/20,高雄市,左營區,路東里,6400300-026,120.288750503526,22.6847225136252,3.448,1,3.448,1,8.000,3,31.034,4,0.0000,3.44
2024/04/21,高雄市,苓雅區,五權里,6400800-041,120.322666144869,22.631852183124,0.000,0,0.000,0,0.000,0,0.000,0,0.0000,0.00
2024/04/21,高雄市,三民區,民享里,6400500-059,120.30022534406,22.6449213763272,4.000,1,4.000,2,10.000,4,6.000,2,0.0200,4.00
2024/04/21,高雄市,左營區,頂北里,6400300-003,120.292397648623,22.6877495483445,2.000,1,2.000,1,7.692,3,10.000,2,0.0000,2.00
2024/04/22,高雄市,左營區,頂西里,6400300-021,120.290915248041,22.6864603651074,0.000,0,0.000,0,0.000,0,0.000,0,0.0000,0.00
2024/04/22,高雄市,三民區,民享里,6400500-059,120.30022534406,22.6449213763272,0.000,0,0.000,0,0.000,0,0.000,0,0.0000,0.00
2024/04/22,高雄市,苓雅區,正言里,6400800-060,120.326722579976,22.6303390886343,0.000,0,0.000,0,0.000,0,0.000,0,0.0000,0.00
2024/04/22,高雄市,前鎮區,鎮榮里,6400900-017,120.311012095109,22.5897345435935,2.000,1,2.000,1,5.555,3,10.000,2,0.0000,2.00
2024/04/22,高雄市,前鎮區,鎮海里,6400900-019,120.31716475852,22.5905845934522,2.000,1,2.000,1,9.677,4,4.000,2,0.0000,2.00
2024/04/22,高雄市,前鎮區,興東里,6400900-037,120.31567675344,22.6112088220026,0.000,0,0.000,0,0.000,0,0.000,0,0.0000,0.00
2024/04/22,高雄市,左營區,尾南里,6400300-008,120.296773244221,22.68883234653,0.000,0,0.000,0,0.000,0,0.000,0,0.0000,0.00
2024/04/22,高雄市,鼓山區,自強里,6400200-009,120.274207443486,22.6665013738113,0.000,0,0.000,0,0.000,0,0.000,0,0.0000,0.00
2024/04/23,高雄市,鼓山區,延平里,6400200-033,120.272129390284,22.6211151428832,0.000,0,0.000,0,0.000,0,0.000,0,0.0000,0.00
2024/04/23,高雄市,前鎮區,盛興里,6400900-034,120.308280611369,22.6141207127801,0.000,0,0.000,0,0.000,0,0.000,0,0.0000,0.00
2024/04/23,高雄市,前鎮區,竹南里,6400900-042,120.319236991788,22.6063959198146,0.000,0,0.000,0,0.000,0,0.000,0,0.0000,0.00
2024/04/23,高雄市,苓雅區,五權里,6400800-041,120.322666144869,22.631852183124,2.000,1,2.000,1,2.941,2,20.000,3,0.0000,2.00
2024/04/23,高雄市,苓雅區,正言里,6400800-060,120.326722579976,22.6303390886343,0.000,0,0.000,0,0.000,0,0.000,0,0.0000,0.00
2024/04/23,高雄市,小港區,大苓里,6401100-011,120.347369124471,22.5684445822775,0.000,0,0.000,0,0.000,0,0.000,0,0.0000,0.00
2024/04/23,高雄市,苓雅區,正文里,6400800-059,120.327887997817,22.631913732279,1.709,1,1.709,1,3.030,2,11.111,3,0.0000,1.70
2024/04/23,高雄市,前鎮區,竹東里,6400900-041,120.324118613341,22.6110674671385,0.000,0,0.000,0,0.000,0,0.000,0,0.0000,0.00
2024/04/23,高雄市,前鎮區,竹內里,6400900-040,120.323408211366,22.6088667841226,0.000,0,0.000,0,0.000,0,0.000,0,0.0000,0.00
2024/04/23,高雄市,左營區,明建里,6400300-019,120.281666350531,22.6953115449162,0.000,0,0.000,0,0.000,0,0.000,0,0.0000,0.00
2024/04/23,高雄市,左營區,廍北里,6400300-027,120.288593206158,22.686006800988,0.000,0,0.000,0,0.000,0,0.000,0,0.0000,0.00
2024/04/23,高雄市,鳳山區,五福里,6401200-043,120.326258579286,22.5902779810772,0.000,0,0.000,0,0.000,0,0.000,0,0.0000,0.00
2024/04/23,高雄市,鳳山區,五福里,6401200-043,120.326258579286,22.5902779810772,2.222,1,2.222,1,4.761,2,12.222,3,0.0111,2.22
2024/04/23,高雄市,三民區,本上里,6400500-014,120.34026716919,22.6455013713115,0.000,0,0.000,0,0.000,0,0.000,0,0.0000,0.00
2024/04/23,高雄市,楠梓區,五常里,6400400-003,120.334754174345,22.7287993585894,0.000,0,0.000,0,0.000,0,0.000,0,0.0000,0.00
2024/04/24,高雄市,鼓山區,明誠里,6400200-017,120.297928763669,22.6634651243903,0.000,0,0.000,0,0.000,0,0.000,0,0.0000,0.00
2024/04/24,高雄市,鳳山區,埤頂里,6401200-014,120.377253069125,22.6309206742823,0.000,0,0.000,0,0.000,0,0.000,0,0.0000,0.00
2024/04/24,高雄市,鳳山區,中正里,6401200-015,120.37187683025,22.6295625605873,0.000,0,0.000,0,0.000,0,0.000,0,0.0000,0.00
2024/04/24,高雄市,左營區,頂北里,6400300-003,120.292397648623,22.6877495483445,0.000,0,0.000,0,0.000,0,0.000,0,0.0000,0.00
2024/04/24,高雄市,鼓山區,河邊里,6400200-027,120.282749887326,22.6397940385515,0.000,0,0.000,0,0.000,0,0.000,0,0.0000,0.00
2024/04/24,高雄市,前鎮區,竹內里,6400900-040,120.323408211366,22.6088667841226,0.000,0,0.000,0,0.000,0,0.000,0,0.0000,0.00
2024/04/24,高雄市,小港區,山東里,6401100-018,120.34942631103,22.5728271947674,0.000,0,0.000,0,0.000,0,0.000,0,0.0000,0.00
2024/04/24,高雄市,苓雅區,福南里,6400800-040,120.325653302973,22.6286576514691,0.000,0,0.000,0,0.000,0,0.000,0,0.0000,0.00
2024/04/24,高雄市,苓雅區,正言里,6400800-060,120.326722579976,22.6303390886343,0.000,0,0.000,0,0.000,0,0.000,0,0.0000,0.00
2024/04/24,高雄市,苓雅區,五權里,6400800-041,120.322666144869,22.631852183124,2.000,1,2.000,1,9.090,3,12.000,3,0.0000,2.00
2024/04/24,高雄市,前鎮區,前鎮里,6400900-015,120.308199911937,22.5887970225028,1.000,1,1.000,1,3.030,2,2.000,1,0.0000,1.00
2024/04/24,高雄市,前鎮區,興仁里,6400900-014,120.3118022823,22.5866460865693,0.000,0,0.000,0,0.000,0,0.000,0,0.0000,0.00
2024/04/24,高雄市,苓雅區,城東里,6400800-009,120.302740727466,22.6150620991989,2.000,1,2.000,1,4.347,2,4.000,2,0.0000,2.00
2024/04/24,高雄市,三民區,安康里,6400500-042,120.318048754824,22.6392415578089,0.000,0,0.000,0,0.000,0,0.000,0,0.0000,0.00
2024/04/24,高雄市,楠梓區,宏昌里,6400400-026,120.293241428683,22.7180971931082,0.000,0,0.000,0,0.000,0,0.000,0,0.0000,0.00
2024/04/25,高雄市,左營區,中北里,6400300-004,120.293182025799,22.6860964739459,0.000,0,0.000,0,0.000,0,0.000,0,0.0000,0.00
2024/04/25,高雄市,前鎮區,興化里,6400900-013,120.308465242367,22.5803171302313,0.000,0,0.000,0,0.000,0,0.000,0,0.0000,0.00
2024/04/25,高雄市,新興區,德望里,6400600-008,120.309077869183,22.6292035135944,2.000,1,2.000,1,4.761,2,40.000,4,0.0000,2.00
2024/04/25,高雄市,前鎮區,忠孝里,6400900-038,120.314325740597,22.6152656942116,0.000,0,0.000,0,0.000,0,0.000,0,0.0000,0.00
2024/04/25,高雄市,苓雅區,民主里,6400800-042,120.322764373256,22.6356206136991,0.000,0,0.000,0,0.000,0,0.000,0,0.0000,0.00
2024/04/25,高雄市,小港區,六苓里,6401100-016,120.360089466056,22.5670061688379,0.000,0,0.000,0,0.000,0,0.000,0,0.0000,0.00
2024/04/25,高雄市,鳳山區,中和里,6401200-008,120.346870407089,22.6266337764999,0.000,0,0.000,0,0.000,0,0.000,0,0.0000,0.00
2024/04/25,高雄市,苓雅區,正大里,6400800-061,120.333152546275,22.629579094131,0.000,0,0.000,0,0.000,0,0.000,0,0.0000,0.00
2024/04/25,高雄市,小港區,山東里,6401100-018,120.34942631103,22.5728271947674,0.000,0,0.000,0,0.000,0,0.000,0,0.0000,0.00
2024/04/25,高雄市,前鎮區,瑞竹里,6400900-046,120.320154267609,22.60125557969,0.000,0,0.000,0,0.000,0,0.000,0,0.0000,0.00
2024/04/25,高雄市,楠梓區,裕昌里,6400400-031,120.288690004616,22.7181137144403,0.000,0,0.000,0,0.000,0,0.000,0,0.0000,0.00
2024/04/25,高雄市,鳳山區,五福里,6401200-043,120.326258579286,22.5902779810772,0.000,0,0.000,0,0.000,0,0.000,0,0.0000,0.00
2024/04/25,高雄市,鼓山區,厚生里,6400200-014,120.279414571287,22.6464193893687,0.000,0,0.000,0,0.000,0,0.000,0,0.0000,0.00
2024/04/26,高雄市,鳳山區,北門里,6401200-053,120.368218009381,22.6341638666377,0.000,0,0.000,0,0.000,0,0.000,0,0.0000,0.00
2024/04/26,高雄市,鳳山區,新興里,6401200-021,120.362920401491,22.6269666359254,0.000,0,0.000,0,0.000,0,0.000,0,0.0000,0.00
2024/04/26,高雄市,苓雅區,正文里,6400800-059,120.327887997817,22.631913732279,3.349,1,3.349,1,10.144,4,10.047,2,0.0000,3.34
2024/04/26,高雄市,苓雅區,正大里,6400800-061,120.333152546275,22.629579094131,2.000,1,2.000,1,5.000,2,2.000,1,0.0000,2.00
2024/04/26,高雄市,苓雅區,正言里,6400800-060,120.326722579976,22.6303390886343,0.000,0,0.000,0,0.000,0,0.000,0,0.0000,0.00
2024/04/26,高雄市,苓雅區,凱旋里,6400800-036,120.320044162372,22.629015000329,0.000,0,0.000,0,0.000,0,0.000,0,0.0000,0.00
2024/04/26,高雄市,苓雅區,民主里,6400800-042,120.322764373256,22.6356206136991,2.000,1,2.000,1,6.666,3,4.000,2,0.0000,2.00
2024/04/26,高雄市,苓雅區,五福里,6400800-062,120.328636190823,22.6346786726938,0.000,0,0.000,0,0.000,0,0.000,0,0.0000,0.00
2024/04/26,高雄市,苓雅區,五權里,6400800-041,120.322666144869,22.631852183124,0.000,0,0.000,0,0.000,0,0.000,0,0.0000,0.00
2024/04/26,高雄市,左營區,中南里,6400300-005,120.293987829998,22.6847700058847,0.000,0,0.000,0,0.000,0,0.000,0,0.0000,0.00
2024/04/26,高雄市,鼓山區,登山里,6400200-029,120.276282449635,22.6277915546879,0.000,0,0.000,0,0.000,0,0.000,0,0.0000,0.00
2024/04/29,高雄市,三民區,灣復里,6400500-037,120.316136826295,22.6511391663978,6.000,2,6.000,2,13.043,4,16.000,3,0.0000,6.00
2024/04/29,高雄市,楠梓區,大昌里,6400400-020,120.290015964165,22.707398850523,0.000,0,0.000,0,0.000,0,0.000,0,0.0000,0.00
2024/04/29,高雄市,苓雅區,五權里,6400800-041,120.322666144869,22.631852183124,2.000,1,2.000,1,4.166,2,200.000,5,0.0000,2.00
2024/04/29,高雄市,鳳山區,海光里,6401200-022,120.371826570678,22.6329779327787,0.000,0,0.000,0,0.000,0,0.000,0,0.0000,0.00
2024/04/29,高雄市,苓雅區,正言里,6400800-060,120.326722579976,22.6303390886343,4.000,1,4.000,2,3.773,2,32.000,4,0.0000,4.00
2024/04/29,高雄市,苓雅區,正文里,6400800-059,120.327887997817,22.631913732279,2.000,1,2.000,1,8.333,3,4.000,2,0.0400,2.00
2024/04/29,高雄市,小港區,山東里,6401100-018,120.34942631103,22.5728271947674,0.000,0,0.000,0,0.000,0,0.000,0,0.0000,0.00
2024/04/29,高雄市,鳳山區,國隆里,6401200-038,120.346501477321,22.6178818084402,0.000,0,0.000,0,0.000,0,0.000,0,0.0000,0.00
2024/04/29,高雄市,左營區,廍北里,6400300-027,120.288593206158,22.686006800988,0.000,0,0.000,0,0.000,0,0.000,0,0.0000,0.00
2024/04/29,高雄市,鳳山區,南和里,6401200-076,120.333563994491,22.5953498984305,0.000,0,0.000,0,0.000,0,0.000,0,0.0000,0.00
2024/04/29,高雄市,鼓山區,龍子里,6400200-015,120.298611957205,22.6561209147425,0.000,0,0.000,0,0.000,0,0.000,0,0.0000,0.00
2024/04/30,高雄市,三民區,寶盛里,6400500-026,120.328340892258,22.6378378872573,1.404,1,1.404,1,3.448,2,2.808,1,0.0000,1.40
2024/04/30,高雄市,左營區,頂西里,6400300-021,120.290915248041,22.6864603651074,0.000,0,0.000,0,0.000,0,0.000,0,0.0000,0.00
2024/04/30,高雄市,鼓山區,綠川里,6400200-028,120.283590843141,22.6357194510053,0.000,0,0.000,0,0.000,0,0.000,0,0.0000,0.00
2024/04/30,高雄市,鳳山區,武漢里,6401200-026,120.335082330697,22.6112079963298,0.000,0,0.000,0,0.000,0,0.000,0,0.0000,0.00
2024/05/02,高雄市,前鎮區,信德里,6400900-011,120.31611241926,22.586066201077,6.000,2,6.000,2,20.000,5,20.000,3,0.0000,6.00
2024/05/02,高雄市,鼓山區,民強里,6400200-013,120.280299584492,22.6519069610492,0.000,0,0.000,0,0.000,0,0.000,0,0.0000,0.00
2024/05/02,高雄市,苓雅區,正言里,6400800-060,120.326722579976,22.6303390886343,0.000,0,0.000,0,0.000,0,0.000,0,0.0000,0.00
2024/05/02,高雄市,苓雅區,福南里,6400800-040,120.325653302973,22.6286576514691,0.000,0,0.000,0,0.000,0,0.000,0,0.0000,0.00
2024/05/02,高雄市,苓雅區,安祥里,6400800-037,120.31912660575,22.631826647504,2.000,1,2.000,1,10.000,4,4.000,2,0.0000,2.00
2024/05/02,高雄市,楠梓區,五常里,6400400-003,120.334754174345,22.7287993585894,0.000,0,0.000,0,0.000,0,0.000,0,0.0000,0.00
2024/05/03,高雄市,苓雅區,正文里,6400800-059,120.327887997817,22.631913732279,0.000,0,0.000,0,0.000,0,0.000,0,0.0000,0.00
2024/05/03,高雄市,前鎮區,信德里,6400900-011,120.31611241926,22.586066201077,0.000,0,0.000,0,0.000,0,0.000,0,0.0000,0.00
2024/05/03,高雄市,前鎮區,竹南里,6400900-042,120.319236991788,22.6063959198146,2.000,1,2.000,1,10.000,4,8.000,2,0.0000,2.00
2024/05/03,高雄市,苓雅區,五權里,6400800-041,120.322666144869,22.631852183124,2.000,1,2.000,1,9.090,3,60.000,4,0.0400,2.00
2024/05/03,高雄市,苓雅區,五權里,6400800-041,120.322666144869,22.631852183124,0.000,0,0.000,0,0.000,0,0.000,0,0.0000,0.00
2024/05/03,高雄市,小港區,三苓里,6401100-013,120.34870102616,22.5663477694735,0.000,0,0.000,0,0.000,0,0.000,0,0.0000,0.00
2024/05/03,高雄市,鼓山區,忠正里,6400200-008,120.276929417969,22.6549457939232,0.000,0,0.000,0,0.000,0,0.000,0,0.0000,0.00
2024/05/03,高雄市,鳳山區,文德里,6401200-039,120.350936651088,22.6438998029759,0.000,0,0.000,0,0.000,0,0.000,0,0.0000,0.00
2024/05/04,高雄市,苓雅區,正言里,6400800-060,120.326722579976,22.6303390886343,0.000,0,0.000,0,0.000,0,0.000,0,0.0200,0.00
2024/05/04,高雄市,三民區,德行里,6400500-057,120.30127665299,22.643454483745,0.000,0,0.000,0,0.000,0,0.000,0,0.0000,0.00
2024/05/04,高雄市,三民區,德行里,6400500-057,120.30127665299,22.643454483745,2.000,1,2.000,1,5.000,2,6.000,2,0.0000,2.00
2024/05/06,高雄市,苓雅區,正言里,6400800-060,120.326722579976,22.6303390886343,0.000,0,0.000,0,0.000,0,0.000,0,0.0000,0.00
2024/05/06,高雄市,三民區,寶德里,6400500-017,120.335090240253,22.6404802413739,0.000,0,0.000,0,0.000,0,0.000,0,0.0000,0.00
2024/05/06,高雄市,三民區,寶興里,6400500-019,120.328950647764,22.6439889388348,0.000,0,0.000,0,0.000,0,0.000,0,0.0000,0.00
2024/05/06,高雄市,路竹區,竹南里,6402400-019,120.260755798446,22.845244262894,4.000,1,2.000,1,9.090,3,6.000,2,0.0000,4.00
2024/05/06,高雄市,鳳山區,鳳崗里,6401200-007,120.358434978122,22.6281011468243,0.000,0,0.000,0,0.000,0,0.000,0,0.0000,0.00
2024/05/06,高雄市,鳳山區,縣衙里,6401200-010,120.357953340804,22.6266154268236,0.000,0,0.000,0,0.000,0,0.000,0,0.0000,0.00
2024/05/06,高雄市,鼓山區,龍水里,6400200-016,120.28716916228,22.6565980725784,0.000,0,0.000,0,0.000,0,0.000,0,0.0000,0.00
2024/05/06,高雄市,苓雅區,五權里,6400800-041,120.322666144869,22.631852183124,0.000,0,0.000,0,0.000,0,0.000,0,0.0200,0.00
2024/05/07,高雄市,苓雅區,五權里,6400800-041,120.322666144869,22.631852183124,0.000,0,0.000,0,0.000,0,0.000,0,0.0000,0.00
2024/05/07,高雄市,前鎮區,信德里,6400900-011,120.31611241926,22.586066201077,0.000,0,0.000,0,0.000,0,0.000,0,0.0000,0.00
2024/05/07,高雄市,前鎮區,信義里,6400900-010,120.315770444619,22.5844362430013,4.000,1,4.000,2,14.285,4,16.000,3,0.0000,4.00
2024/05/07,高雄市,前鎮區,信德里,6400900-011,120.31611241926,22.586066201077,0.000,0,0.000,0,0.000,0,0.000,0,0.0000,0.00
2024/05/07,高雄市,路竹區,文北里,6402400-013,120.247378667939,22.8624655068865,6.000,2,4.000,2,13.043,4,44.000,4,0.0200,6.00
2024/05/07,高雄市,鳳山區,武松里,6401200-058,120.365593083589,22.6368028852987,0.000,0,0.000,0,0.000,0,0.000,0,0.0000,0.00
2024/05/07,高雄市,鼓山區,內惟里,6400200-006,120.279135776638,22.6612783548734,0.000,0,0.000,0,0.000,0,0.000,0,0.0000,0.00
2024/05/08,高雄市,左營區,新上里,6400300-040,120.308224914317,22.6621251399324,0.000,0,0.000,0,0.000,0,0.000,0,0.0000,0.00
2024/05/08,高雄市,三民區,寶玉里,6400500-030,120.334359802636,22.6472108059855,0.000,0,0.000,0,0.000,0,0.000,0,0.0000,0.00
2024/05/08,高雄市,小港區,濟南里,6401100-020,120.358973626891,22.572828591733,0.000,0,0.000,0,0.000,0,0.000,0,0.0000,0.00
2024/05/08,高雄市,前鎮區,竹內里,6400900-040,120.323408211366,22.6088667841226,0.000,0,0.000,0,0.000,0,0.000,0,0.0000,0.00
2024/05/08,高雄市,楠梓區,裕昌里,6400400-031,120.288690004616,22.7181137144403,0.000,0,0.000,0,0.000,0,0.000,0,0.0000,0.00
2024/05/08,高雄市,前鎮區,平昌里,6400900-008,120.318002379565,22.5865417933385,0.000,0,0.000,0,0.000,0,0.000,0,0.0000,0.00
2024/05/08,高雄市,鳳山區,鎮南里,6401200-016,120.330771059431,22.5967030038254,0.000,0,0.000,0,0.000,0,0.000,0,0.0000,0.00
2024/05/08,高雄市,前鎮區,明禮里,6400900-009,120.3240712359,22.5845602744247,2.000,1,2.000,1,7.142,3,10.000,2,0.0000,2.00
2024/05/08,高雄市,前鎮區,明禮里,6400900-009,120.3240712359,22.5845602744247,0.000,0,0.000,0,0.000,0,0.000,0,0.0000,0.00
2024/05/08,高雄市,前鎮區,信義里,6400900-010,120.315770444619,22.5844362430013,0.000,0,0.000,0,0.000,0,0.000,0,0.0000,0.00
2024/05/08,高雄市,苓雅區,五權里,6400800-041,120.322666144869,22.631852183124,2.000,1,2.000,1,7.142,3,2.000,1,0.0000,2.00
2024/05/08,高雄市,旗津區,振興里,6401000-003,120.270350586272,22.6120357318515,0.000,0,0.000,0,0.000,0,0.000,0,0.0000,0.00
2024/05/08,高雄市,旗津區,振興里,6401000-003,120.270350586272,22.6120357318515,0.000,0,0.000,0,0.000,0,0.000,0,0.0000,0.00
2024/05/08,高雄市,旗津區,振興里,6401000-003,120.270350586272,22.6120357318515,0.000,0,0.000,0,0.000,0,0.000,0,0.0000,0.00
2024/05/08,高雄市,鼓山區,光榮里,6400200-004,120.280873671054,22.6581136544849,0.000,0,0.000,0,0.000,0,0.000,0,0.0000,0.00
2024/05/08,高雄市,楠梓區,和昌里,6400400-027,120.294613167624,22.7084680672459,0.000,0,0.000,0,0.000,0,0.000,0,0.0000,0.00
2024/05/08,高雄市,鳳山區,龍成里,6401200-073,120.328455658923,22.5983640464793,0.000,0,0.000,0,0.000,0,0.000,0,0.0000,0.00
2024/05/08,高雄市,鳳山區,善美里,6401200-075,120.334121963659,22.6014008783692,0.000,0,0.000,0,0.000,0,0.000,0,0.0000,0.00
2024/05/08,高雄市,鳳山區,南興里,6401200-005,120.360724416254,22.6222311457478,0.000,0,0.000,0,0.000,0,0.000,0,0.0000,0.00
2024/05/08,高雄市,鳳山區,縣口里,6401200-001,120.358112203895,22.6255300612598,0.000,0,0.000,0,0.000,0,0.000,0,0.0000,0.00
2024/05/09,高雄市,鳳山區,光明里,6401200-003,120.360738486125,22.6267432863136,0.000,0,0.000,0,0.000,0,0.000,0,0.0000,0.00
2024/05/09,高雄市,鳳山區,福誠里,6401200-049,120.324306140127,22.5946341776127,0.000,0,0.000,0,0.000,0,0.000,0,0.0000,0.00
2024/05/09,高雄市,鳳山區,正義里,6401200-027,120.34031583266,22.6028596555928,0.000,0,0.000,0,0.000,0,0.000,0,0.0000,0.00
2024/05/09,高雄市,鼓山區,登山里,6400200-029,120.276282449635,22.6277915546879,0.000,0,0.000,0,0.000,0,0.000,0,0.0000,0.00
2024/05/09,高雄市,旗津區,慈愛里,6401000-004,120.269583335891,22.6095450666034,0.000,0,0.000,0,0.000,0,0.000,0,0.0000,0.00
2024/05/09,高雄市,旗津區,慈愛里,6401000-004,120.269583335891,22.6095450666034,0.000,0,0.000,0,0.000,0,0.000,0,0.0000,0.00
2024/05/09,高雄市,鳳山區,忠義里,6401200-019,120.347890809101,22.6279918395228,0.000,0,0.000,0,0.000,0,0.000,0,0.0000,0.00
2024/05/09,高雄市,鳳山區,新強里,6401200-033,120.341365282297,22.6171981687649,0.000,0,0.000,0,0.000,0,0.000,0,0.0000,0.00
2024/05/09,高雄市,三民區,寶龍里,6400500-028,120.323519935066,22.6455805107694,0.000,0,0.000,0,0.000,0,0.000,0,0.0000,0.00
2024/05/09,高雄市,楠梓區,瑞屏里,6400400-013,120.307173233181,22.7224595216169,0.000,0,0.000,0,0.000,0,0.000,0,0.0000,0.00
2024/05/10,高雄市,小港區,泰山里,6401100-021,120.363661746901,22.5721755179088,0.000,0,0.000,0,0.000,0,0.000,0,0.0000,0.00
2024/05/10,高雄市,鳳山區,福祥里,6401200-077,120.325500351956,22.5925950797911,0.000,0,0.000,0,0.000,0,0.000,0,0.0000,0.00
2024/05/10,高雄市,鼓山區,明誠里,6400200-017,120.297928763669,22.6634651243903,2.000,1,2.000,1,25.000,6,4.000,2,0.0000,2.00
2024/05/10,高雄市,楠梓區,翠屏里,6400400-014,120.303801786057,22.727704974475,6.000,2,4.000,2,15.000,5,20.000,3,0.0000,6.00
2024/05/10,高雄市,楠梓區,東寧里,6400400-002,120.329525796606,22.7332760887877,1.960,1,1.960,1,3.703,2,58.823,4,0.0000,1.96
2024/05/10,高雄市,鳳山區,誠信里,6401200-061,120.374069556747,22.6209096231604,0.000,0,0.000,0,0.000,0,0.000,0,0.0000,0.00
2024/05/13,高雄市,楠梓區,泰昌里,6400400-023,120.285905183896,22.7142503038407,0.000,0,0.000,0,0.000,0,0.000,0,0.0000,0.00
2024/05/13,高雄市,鼓山區,厚生里,6400200-014,120.279414571287,22.6464193893687,0.000,0,0.000,0,0.000,0,0.000,0,0.0000,0.00
2024/05/13,高雄市,鳳山區,大德里,6401200-057,120.332293913807,22.5894412055356,0.000,0,0.000,0,0.000,0,0.000,0,0.0000,0.00
2024/05/13,高雄市,苓雅區,正心里,6400800-063,120.33238588344,22.6333834793628,2.000,1,2.000,1,7.142,3,4.000,2,0.0000,2.00
2024/05/13,高雄市,三民區,寶盛里,6400500-026,120.328340892258,22.6378378872573,0.000,0,0.000,0,0.000,0,0.000,0,0.0000,0.00
2024/05/14,高雄市,鳳山區,過埤里,6401200-040,120.363015132598,22.5984603438942,0.000,0,0.000,0,0.000,0,0.000,0,0.0000,0.00
2024/05/14,高雄市,鳳山區,過埤里,6401200-040,120.363015132598,22.5984603438942,0.000,0,0.000,0,0.000,0,0.000,0,0.0000,0.00
2024/05/14,高雄市,鳳山區,二甲里,6401200-072,120.340365194283,22.5967376032008,0.000,0,0.000,0,0.000,0,0.000,0,0.0000,0.00
2024/05/14,高雄市,鼓山區,厚生里,6400200-014,120.279414571287,22.6464193893687,4.000,1,4.000,2,9.090,3,10.000,2,0.0000,4.00
2024/05/14,高雄市,鳳山區,和德里,6401200-006,120.360327775131,22.6194922589586,0.000,0,0.000,0,0.000,0,0.000,0,0.0000,0.00
2024/05/14,高雄市,楠梓區,宏榮里,6400400-017,120.303032531577,22.712745754713,0.000,0,0.000,0,0.000,0,0.000,0,0.0000,0.00
2024/05/14,高雄市,楠梓區,隆昌里,6400400-029,120.293619018959,22.7111971466965,0.000,0,0.000,0,0.000,0,0.000,0,0.0000,0.00
2024/05/14,高雄市,鼓山區,自強里,6400200-009,120.274207443486,22.6665013738113,2.000,1,2.000,1,14.285,4,10.000,2,0.0000,2.00
2024/05/14,高雄市,鳳山區,新武里,6401200-066,120.339017220432,22.6081792300411,0.000,0,0.000,0,0.000,0,0.000,0,0.0000,0.00
2024/05/15,高雄市,鳳山區,正義里,6401200-027,120.34031583266,22.6028596555928,0.000,0,0.000,0,0.000,0,0.000,0,0.0000,0.00
2024/05/15,高雄市,三民區,寶華里,6400500-021,120.34255250166,22.6377793687028,0.000,0,0.000,0,0.000,0,0.000,0,0.0000,0.00
2024/05/15,高雄市,三民區,本安里,6400500-013,120.338028840921,22.6490595822713,0.000,0,0.000,0,0.000,0,0.000,0,0.0000,0.00
2024/05/15,高雄市,楠梓區,翠屏里,6400400-014,120.303801786057,22.727704974475,0.000,0,0.000,0,0.000,0,0.000,0,0.0000,0.00
2024/05/15,高雄市,三民區,灣愛里,6400500-032,120.319613193373,22.6590415789439,0.000,0,0.000,0,0.000,0,0.000,0,0.0000,0.00
2024/05/15,高雄市,旗津區,慈愛里,6401000-004,120.269583335891,22.6095450666034,0.000,0,0.000,0,0.000,0,0.000,0,0.0000,0.00
2024/05/15,高雄市,旗津區,慈愛里,6401000-004,120.269583335891,22.6095450666034,0.000,0,0.000,0,0.000,0,0.000,0,0.0000,0.00
2024/05/15,高雄市,小港區,鳳宮里,6401100-009,120.35324960777,22.5476365758146,0.000,0,0.000,0,0.000,0,0.000,0,0.0000,0.00
2024/05/15,高雄市,鼓山區,厚生里,6400200-014,120.279414571287,22.6464193893687,2.000,1,2.000,1,8.333,3,6.000,2,0.0000,2.00
2024/05/15,高雄市,鳳山區,東門里,6401200-030,120.372248584003,22.6232925760191,0.000,0,0.000,0,0.000,0,0.000,0,0.0000,0.00
2024/05/15,高雄市,鳳山區,新強里,6401200-033,120.341365282297,22.6171981687649,0.000,0,0.000,0,0.000,0,0.000,0,0.0000,0.00
2024/05/16,高雄市,鳳山區,鎮南里,6401200-016,120.330771059431,22.5967030038254,0.000,0,0.000,0,0.000,0,0.000,0,0.0000,0.00
2024/05/16,高雄市,鳳山區,成功里,6401200-002,120.358387069709,22.6238360102179,0.000,0,0.000,0,0.000,0,0.000,0,0.0000,0.00
2024/05/16,高雄市,鼓山區,民強里,6400200-013,120.280299584492,22.6519069610492,0.000,0,0.000,0,0.000,0,0.000,0,0.0000,0.00
2024/05/16,高雄市,三民區,寶玉里,6400500-030,120.334359802636,22.6472108059855,0.000,0,0.000,0,0.000,0,0.000,0,0.0000,0.00
2024/05/16,高雄市,三民區,安吉里,6400500-044,120.315980893027,22.6429012053707,0.000,0,0.000,0,0.000,0,0.000,0,0.0000,0.00
2024/05/16,高雄市,苓雅區,正言里,6400800-060,120.326722579976,22.6303390886343,0.000,0,0.000,0,0.000,0,0.000,0,0.0000,0.00
2024/05/16,高雄市,旗津區,中華里,6401000-006,120.268398572929,22.6040983179237,0.000,0,0.000,0,0.000,0,0.000,0,0.0000,0.00
2024/05/16,高雄市,旗津區,中華里,6401000-006,120.268398572929,22.6040983179237,0.000,0,0.000,0,0.000,0,0.000,0,0.0000,0.00
2024/05/16,高雄市,楠梓區,久昌里,6400400-019,120.284272495272,22.7095103097005,0.000,0,0.000,0,0.000,0,0.000,0,0.0000,0.00
2024/05/16,高雄市,楠梓區,錦屏里,6400400-009,120.31180873815,22.7167725765024,1.960,1,1.960,1,2.857,2,11.764,3,0.0000,1.96
2024/05/16,高雄市,鳳山區,鎮北里,6401200-009,120.371069257909,22.6414368421992,0.000,0,0.000,0,0.000,0,0.000,0,0.0000,0.00
2024/05/17,高雄市,鳳山區,鎮東里,6401200-013,120.365321335458,22.6222569854184,0.000,0,0.000,0,0.000,0,0.000,0,0.0000,0.00
2024/05/17,高雄市,楠梓區,惠民里,6400400-007,120.322901420835,22.7309571270033,0.000,0,0.000,0,0.000,0,0.000,0,0.0000,0.00
2024/05/17,高雄市,楠梓區,大昌里,6400400-020,120.290015964165,22.707398850523,0.000,0,0.000,0,0.000,0,0.000,0,0.0000,0.00
2024/05/17,高雄市,鼓山區,自強里,6400200-009,120.274207443486,22.6665013738113,0.000,0,0.000,0,0.000,0,0.000,0,0.0000,0.00
2024/05/17,高雄市,旗津區,中華里,6401000-006,120.268398572929,22.6040983179237,0.000,0,0.000,0,0.000,0,0.000,0,0.0000,0.00
2024/05/17,高雄市,旗津區,中華里,6401000-006,120.268398572929,22.6040983179237,0.000,0,0.000,0,0.000,0,0.000,0,0.0000,0.00
2024/05/17,高雄市,苓雅區,民主里,6400800-042,120.322764373256,22.6356206136991,2.000,1,2.000,1,5.882,3,20.000,3,0.0000,2.00
2024/05/17,高雄市,新興區,正氣里,6400600-005,120.307517921512,22.6226228563533,0.000,0,0.000,0,0.000,0,0.000,0,0.0000,0.00
2024/05/17,高雄市,前金區,榮復里,6400700-018,120.296457704761,22.619836839953,6.000,2,6.000,2,20.000,5,54.000,4,0.0000,6.00
2024/05/17,高雄市,苓雅區,福南里,6400800-040,120.325653302973,22.6286576514691,2.000,1,2.000,1,5.555,3,4.000,2,0.0000,2.00
2024/05/17,高雄市,苓雅區,凱旋里,6400800-036,120.320044162372,22.629015000329,0.000,0,0.000,0,0.000,0,0.000,0,0.0000,0.00
2024/05/17,高雄市,小港區,二苓里,6401100-012,120.353719465506,22.5644652262719,0.000,0,0.000,0,0.000,0,0.000,0,0.0000,0.00
2024/05/17,高雄市,小港區,二苓里,6401100-012,120.353719465506,22.5644652262719,0.000,0,0.000,0,0.000,0,0.000,0,0.0000,0.00
2024/05/17,高雄市,楠梓區,惠楠里,6400400-006,120.325888927062,22.7270821570086,0.000,0,0.000,0,0.000,0,0.000,0,0.0000,0.00
2024/05/17,高雄市,鼓山區,厚生里,6400200-014,120.279414571287,22.6464193893687,2.000,1,2.000,1,3.225,2,60.000,4,0.0000,2.00
2024/05/20,高雄市,鼓山區,華豐里,6400200-018,120.295878159141,22.6680225306275,0.000,0,0.000,0,0.000,0,0.000,0,0.0000,0.00
2024/05/20,高雄市,鳳山區,和德里,6401200-006,120.360327775131,22.6194922589586,0.000,0,0.000,0,0.000,0,0.000,0,0.0000,0.00
2024/05/20,高雄市,小港區,港后里,6401100-006,120.334580906575,22.5708546629345,0.000,0,0.000,0,0.000,0,0.000,0,0.0000,0.00
2024/05/20,高雄市,前鎮區,平昌里,6400900-008,120.318002379565,22.5865417933385,0.000,0,0.000,0,0.000,0,0.000,0,0.0000,0.00
2024/05/20,高雄市,前鎮區,瑞崗里,6400900-056,120.330066107481,22.606107646196,0.000,0,0.000,0,0.000,0,0.000,0,0.0000,0.00
2024/05/20,高雄市,左營區,聖南里,6400300-024,120.290138676364,22.6841502667801,0.000,0,0.000,0,0.000,0,0.000,0,0.0000,0.00
2024/05/20,高雄市,楠梓區,和昌里,6400400-027,120.294613167624,22.7084680672459,0.000,0,0.000,0,0.000,0,0.000,0,0.0000,0.00
2024/05/20,高雄市,左營區,新光里,6400300-042,120.303010946861,22.6773485555155,4.000,1,4.000,2,8.695,3,36.000,4,0.0000,4.00
2024/05/20,高雄市,鳳山區,海光里,6401200-022,120.371826570678,22.6329779327787,0.000,0,0.000,0,0.000,0,0.000,0,0.0000,0.00
2024/05/21,高雄市,鳳山區,和興里,6401200-046,120.355396738715,22.6152363069927,0.000,0,0.000,0,0.000,0,0.000,0,0.0000,0.00
2024/05/21,高雄市,楠梓區,清豐里,6400400-001,120.331135228679,22.7441569161639,0.000,0,0.000,0,0.000,0,0.000,0,0.0000,0.00
2024/05/21,高雄市,楠梓區,宏昌里,6400400-026,120.293241428683,22.7180971931082,3.921,1,3.921,2,5.405,2,19.607,3,0.0000,3.92
2024/05/21,高雄市,楠梓區,興昌里,6400400-024,120.285040304515,22.7166977774198,0.000,0,0.000,0,0.000,0,0.000,0,0.0000,0.00
2024/05/21,高雄市,三民區,鼎泰里,6400500-007,120.315713644991,22.6635537281643,0.000,0,0.000,0,0.000,0,0.000,0,0.0000,0.00
2024/05/21,高雄市,三民區,寶業里,6400500-025,120.345282811549,22.6398907243105,0.000,0,0.000,0,0.000,0,0.000,0,0.0000,0.00
2024/05/21,高雄市,三民區,港新里,6400500-069,120.314544134383,22.6356521965708,2.000,1,2.000,1,6.250,3,6.000,2,0.0000,2.00
2024/05/21,高雄市,前鎮區,平等里,6400900-007,120.320563775756,22.5880472807576,0.000,0,0.000,0,0.000,0,0.000,0,0.0000,0.00
2024/05/21,高雄市,三民區,正興里,6400500-038,120.318926456279,22.6463207067984,0.000,0,0.000,0,0.000,0,0.000,0,0.0000,0.00
2024/05/21,高雄市,左營區,埤西里,6400300-029,120.288005948693,22.6810963087281,2.000,1,2.000,1,6.666,3,6.000,2,0.0000,2.00
2024/05/21,高雄市,小港區,山明里,6401100-022,120.372016676726,22.5483760397007,0.000,0,0.000,0,0.000,0,0.000,0,0.0000,0.00
2024/05/21,高雄市,旗津區,復興里,6401000-005,120.272292334142,22.601454528497,0.000,0,0.000,0,0.000,0,0.000,0,0.0000,0.00
2024/05/21,高雄市,旗津區,復興里,6401000-005,120.272292334142,22.601454528497,0.000,0,0.000,0,0.000,0,0.000,0,0.0000,0.00
2024/05/21,高雄市,苓雅區,正道里,6400800-064,120.334959835558,22.6334880312536,0.000,0,0.000,0,0.000,0,0.000,0,0.0400,0.00
2024/05/21,高雄市,苓雅區,正心里,6400800-063,120.33238588344,22.6333834793628,0.000,0,0.000,0,0.000,0,0.000,0,0.0000,0.00
2024/05/21,高雄市,三民區,德智里,6400500-053,120.309492042755,22.6435973196978,0.000,0,0.000,0,0.000,0,0.000,0,0.0000,0.00
2024/05/21,高雄市,鼓山區,雄峰里,6400200-002,120.284714267641,22.6688155905084,0.000,0,0.000,0,0.000,0,0.000,0,0.0000,0.00
2024/05/22,高雄市,鼓山區,龍子里,6400200-015,120.298611957205,22.6561209147425,0.000,0,0.000,0,0.000,0,0.000,0,0.0000,0.00
2024/05/22,高雄市,鳳山區,東門里,6401200-030,120.372248584003,22.6232925760191,4.000,1,2.000,1,14.285,4,60.000,4,0.0000,4.00
2024/05/22,高雄市,小港區,山東里,6401100-018,120.34942631103,22.5728271947674,0.000,0,0.000,0,0.000,0,0.000,0,0.0000,0.00
2024/05/22,高雄市,旗津區,復興里,6401000-005,120.272292334142,22.601454528497,0.000,0,0.000,0,0.000,0,0.000,0,0.0000,0.00
2024/05/22,高雄市,小港區,山東里,6401100-018,120.34942631103,22.5728271947674,0.000,0,0.000,0,0.000,0,0.000,0,0.0000,0.00
2024/05/22,高雄市,前鎮區,德昌里,6400900-006,120.319483825405,22.5805426027209,0.000,0,0.000,0,0.000,0,0.000,0,0.0000,0.00
2024/05/22,高雄市,楠梓區,瑞屏里,6400400-013,120.307173233181,22.7224595216169,0.000,0,0.000,0,0.000,0,0.000,0,0.0000,0.00
2024/05/22,高雄市,楠梓區,仁昌里,6400400-034,120.294119259652,22.7235703036406,1.960,1,1.960,1,3.125,2,3.921,2,0.0000,1.96
2024/05/22,高雄市,前鎮區,平等里,6400900-007,120.320563775756,22.5880472807576,0.000,0,0.000,0,0.000,0,0.000,0,0.0000,0.00
2024/05/22,高雄市,前鎮區,平等里,6400900-007,120.320563775756,22.5880472807576,2.000,1,2.000,1,5.555,3,20.000,3,0.0000,2.00
2024/05/22,高雄市,左營區,廟北里,6400300-007,120.295305997822,22.6875294683571,0.000,0,0.000,0,0.000,0,0.000,0,0.0000,0.00
2024/05/22,高雄市,旗津區,中華里,6401000-006,120.268398572929,22.6040983179237,0.000,0,0.000,0,0.000,0,0.000,0,0.0000,0.00
2024/05/23,高雄市,楠梓區,宏南里,6400400-015,120.311844128059,22.7058983760685,3.921,1,3.921,2,5.714,3,7.843,2,0.0000,3.92
2024/05/23,高雄市,左營區,尾北里,6400300-009,120.302673128867,22.6877706917203,0.000,0,0.000,0,0.000,0,0.000,0,0.0000,0.00
2024/05/23,高雄市,楠梓區,國昌里,6400400-032,120.286820330139,22.7213391315667,0.000,0,0.000,0,0.000,0,0.000,0,0.0000,0.00
2024/05/23,高雄市,鳳山區,中和里,6401200-008,120.346870407089,22.6266337764999,0.000,0,0.000,0,0.000,0,0.000,0,0.0000,0.00
2024/05/23,高雄市,三民區,寶龍里,6400500-028,120.323519935066,22.6455805107694,0.000,0,0.000,0,0.000,0,0.000,0,0.0000,0.00
2024/05/23,高雄市,鼓山區,麗興里,6400200-031,120.279801999859,22.6186603577359,0.000,0,0.000,0,0.000,0,0.000,0,0.0000,0.00
2024/05/23,高雄市,鳳山區,忠孝里,6401200-044,120.347462585239,22.6310855088349,0.000,0,0.000,0,0.000,0,0.000,0,0.0000,0.00
2024/05/23,高雄市,三民區,寶中里,6400500-020,120.324894809636,22.6431687439934,2.000,1,2.000,1,8.333,3,6.000,2,0.0000,2.00
2024/05/23,高雄市,前鎮區,德昌里,6400900-006,120.319483825405,22.5805426027209,0.000,0,0.000,0,0.000,0,0.000,0,0.0000,0.00
2024/05/23,高雄市,前鎮區,瑞崗里,6400900-056,120.330066107481,22.606107646196,0.000,0,0.000,0,0.000,0,0.000,0,0.0000,0.00
2024/05/23,高雄市,旗津區,實踐里,6401000-007,120.276014568114,22.60637736506,0.000,0,0.000,0,0.000,0,0.000,0,0.0000,0.00
2024/05/23,高雄市,旗津區,復興里,6401000-005,120.272292334142,22.601454528497,0.000,0,0.000,0,0.000,0,0.000,0,0.0000,0.00
2024/05/24,高雄市,旗津區,實踐里,6401000-007,120.276014568114,22.60637736506,0.000,0,0.000,0,0.000,0,0.000,0,0.0000,0.00
2024/05/24,高雄市,旗津區,實踐里,6401000-007,120.276014568114,22.60637736506,0.000,0,0.000,0,0.000,0,0.000,0,0.0000,0.00
2024/05/24,高雄市,前鎮區,瑞昌里,6400900-061,120.333794701611,22.6071477015255,14.000,3,14.000,3,33.333,8,54.000,4,0.0000,14.00
2024/05/24,高雄市,三民區,寶興里,6400500-019,120.328950647764,22.6439889388348,0.000,0,0.000,0,0.000,0,0.000,0,0.0000,0.00
2024/05/24,高雄市,左營區,埤西里,6400300-029,120.288005948693,22.6810963087281,0.000,0,0.000,0,0.000,0,0.000,0,0.0000,0.00
2024/05/24,高雄市,三民區,灣中里,6400500-033,120.318308506966,22.6494968620294,0.000,0,0.000,0,0.000,0,0.000,0,0.0000,0.00
2024/05/24,高雄市,楠梓區,惠豐里,6400400-008,120.317150589023,22.730144227767,0.000,0,0.000,0,0.000,0,0.000,0,0.0000,0.00
2024/05/24,高雄市,鼓山區,前峰里,6400200-003,120.283425262634,22.6642642171346,0.000,0,0.000,0,0.000,0,0.000,0,0.0000,0.00
2024/05/24,高雄市,三民區,灣勝里,6400500-035,120.322921138597,22.6517019672004,0.000,0,0.000,0,0.000,0,0.000,0,0.0000,0.00
2024/05/24,高雄市,前鎮區,信德里,6400900-011,120.31611241926,22.586066201077,0.000,0,0.000,0,0.000,0,0.000,0,0.0000,0.00
2024/05/27,高雄市,前鎮區,仁愛里,6400900-005,120.316564068599,22.5804876602519,2.000,1,2.000,1,7.142,3,12.000,3,0.0000,2.00
2024/05/27,高雄市,前鎮區,瑞平里,6400900-052,120.331318109675,22.6021860501627,0.000,0,0.000,0,0.000,0,0.000,0,0.0000,0.00
2024/05/27,高雄市,旗津區,北汕里,6401000-008,120.275823975238,22.5969761150186,0.000,0,0.000,0,0.000,0,0.000,0,0.0000,0.00
2024/05/27,高雄市,楠梓區,翠屏里,6400400-014,120.303801786057,22.727704974475,0.000,0,0.000,0,0.000,0,0.000,0,0.0000,0.00
2024/05/27,高雄市,左營區,新下里,6400300-039,120.299510729206,22.6711867566794,0.000,0,0.000,0,0.000,0,0.000,0,0.0000,0.00
2024/05/27,高雄市,鳳山區,武漢里,6401200-026,120.335082330697,22.6112079963298,0.000,0,0.000,0,0.000,0,0.000,0,0.0000,0.00
2024/05/27,高雄市,三民區,寶龍里,6400500-028,120.323519935066,22.6455805107694,0.000,0,0.000,0,0.000,0,0.000,0,0.0000,0.00
2024/05/27,高雄市,鳳山區,過埤里,6401200-040,120.363015132598,22.5984603438942,0.000,0,0.000,0,0.000,0,0.000,0,0.0000,0.00
2024/05/27,高雄市,鼓山區,平和里,6400200-012,120.277677872996,22.651327682128,0.000,0,0.000,0,0.000,0,0.000,0,0.0000,0.00
2024/05/28,高雄市,楠梓區,秀昌里,6400400-030,120.296021444545,22.7129487442018,0.000,0,0.000,0,0.000,0,0.000,0,0.0000,0.00
2024/05/28,高雄市,三民區,鳳北里,6400500-078,120.294131678539,22.6382363720127,4.000,1,4.000,2,8.000,3,46.000,4,0.0000,4.00
2024/05/28,高雄市,鼓山區,厚生里,6400200-014,120.279414571287,22.6464193893687,0.000,0,0.000,0,0.000,0,0.000,0,0.0000,0.00
2024/05/28,高雄市,楠梓區,清豐里,6400400-001,120.331135228679,22.7441569161639,0.000,0,0.000,0,0.000,0,0.000,0,0.0000,0.00
2024/05/28,高雄市,左營區,祥和里,6400300-012,120.304033106566,22.6947278007544,0.000,0,0.000,0,0.000,0,0.000,0,0.0000,0.00
2024/05/29,高雄市,左營區,尾南里,6400300-008,120.296773244221,22.68883234653,2.000,1,2.000,1,5.555,3,12.000,3,0.0000,2.00
2024/05/29,高雄市,三民區,灣愛里,6400500-032,120.319613193373,22.6590415789439,0.000,0,0.000,0,0.000,0,0.000,0,0.0000,0.00
2024/05/29,高雄市,三民區,正順里,6400500-039,120.323288764644,22.6481602031403,1.666,1,1.666,1,4.166,2,8.333,2,0.0000,1.66
2024/05/29,高雄市,鼓山區,明誠里,6400200-017,120.297928763669,22.6634651243903,0.000,0,0.000,0,0.000,0,0.000,0,0.0000,0.00
2024/05/29,高雄市,旗津區,安順里,6401000-012,120.301179847812,22.5719225188697,0.000,0,0.000,0,0.000,0,0.000,0,0.0000,0.00
2024/05/29,高雄市,旗津區,安順里,6401000-012,120.301179847812,22.5719225188697,0.000,0,0.000,0,0.000,0,0.000,0,0.0000,0.00
2024/05/29,高雄市,苓雅區,安祥里,6400800-037,120.31912660575,22.631826647504,2.068,1,2.068,1,3.529,2,11.034,3,0.0000,2.06
2024/05/29,高雄市,三民區,寶龍里,6400500-028,120.323519935066,22.6455805107694,3.783,1,3.783,2,6.306,3,35.675,4,0.0000,3.78
2024/05/29,高雄市,三民區,寶慶里,6400500-024,120.33881396504,22.6384818198214,0.000,0,0.000,0,0.000,0,0.000,0,0.0000,0.00
2024/05/30,高雄市,左營區,屏山里,6400300-011,120.300953865726,22.6925214721205,0.000,0,0.000,0,0.000,0,0.000,0,0.0000,0.00
2024/05/30,高雄市,三民區,寶珠里,6400500-029,120.328669260092,22.6487000057759,8.000,2,8.000,3,33.333,8,50.000,4,0.0000,8.00
2024/05/30,高雄市,苓雅區,安祥里,6400800-037,120.31912660575,22.631826647504,8.235,2,7.058,2,7.865,3,36.470,4,0.0000,8.23
2024/05/30,高雄市,鳳山區,二甲里,6401200-072,120.340365194283,22.5967376032008,0.000,0,0.000,0,0.000,0,0.000,0,0.0000,0.00
2024/05/30,高雄市,鼓山區,正德里,6400200-011,120.269435481657,22.6490200829927,0.000,0,0.000,0,0.000,0,0.000,0,0.0000,0.00
2024/05/30,高雄市,旗津區,北汕里,6401000-008,120.275823975238,22.5969761150186,0.000,0,0.000,0,0.000,0,0.000,0,0.0000,0.00
2024/05/30,高雄市,旗津區,北汕里,6401000-008,120.275823975238,22.5969761150186,0.000,0,0.000,0,0.000,0,0.000,0,0.0000,0.00
2024/05/31,高雄市,旗津區,北汕里,6401000-008,120.275823975238,22.5969761150186,0.000,0,0.000,0,0.000,0,0.000,0,0.0000,0.00
2024/05/31,高雄市,左營區,尾北里,6400300-009,120.302673128867,22.6877706917203,0.000,0,0.000,0,0.000,0,0.000,0,0.0000,0.00
2024/05/31,高雄市,鳳山區,富榮里,6401200-074,120.336852654158,22.5964894498481,0.000,0,0.000,0,0.000,0,0.000,0,0.0000,0.00
2024/05/31,高雄市,鼓山區,裕興里,6400200-019,120.291715203756,22.669724250432,0.000,0,0.000,0,0.000,0,0.000,0,0.0000,0.00
2024/05/31,高雄市,鳳山區,保安里,6401200-078,120.348561188549,22.5954298103048,0.000,0,0.000,0,0.000,0,0.000,0,0.0000,0.00
2024/05/31,高雄市,楠梓區,加昌里,6400400-033,120.297198757136,22.7189554068796,0.000,0,0.000,0,0.000,0,0.000,0,0.0000,0.00
2024/05/31,高雄市,楠梓區,宏毅里,6400400-016,120.307460687827,22.7156508071064,1.960,1,1.960,1,2.500,1,19.607,3,0.0000,1.96
2024/06/03,高雄市,三民區,寶龍里,6400500-028,120.323519935066,22.6455805107694,0.000,0,0.000,0,0.000,0,0.000,0,0.0000,0.00
2024/06/03,高雄市,前鎮區,瑞昌里,6400900-061,120.333794701611,22.6071477015255,0.000,0,0.000,0,0.000,0,0.000,0,0.0000,0.00
2024/06/03,高雄市,前鎮區,瑞昌里,6400900-061,120.333794701611,22.6071477015255,0.000,0,0.000,0,0.000,0,0.000,0,0.0000,0.00
2024/06/03,高雄市,楠梓區,五常里,6400400-003,120.334754174345,22.7287993585894,24.000,4,16.000,3,50.000,9,152.000,5,0.0000,24.00
2024/06/03,高雄市,鳳山區,武慶里,6401200-064,120.331898069038,22.6150874256051,0.000,0,0.000,0,0.000,0,0.000,0,0.0000,0.00
2024/06/03,高雄市,鳳山區,正義里,6401200-027,120.34031583266,22.6028596555928,0.000,0,0.000,0,0.000,0,0.000,0,0.0000,0.00
2024/06/03,高雄市,左營區,尾北里,6400300-009,120.302673128867,22.6877706917203,6.000,2,4.000,2,10.000,4,132.000,5,0.0800,6.00
2024/06/03,高雄市,新興區,開平里,6400600-017,120.31112008328,22.6353804910127,0.000,0,0.000,0,0.000,0,0.000,0,0.0000,0.00
2024/06/03,高雄市,楠梓區,翠屏里,6400400-014,120.303801786057,22.727704974475,2.000,1,2.000,1,9.090,3,2.000,1,0.0000,2.00
2024/06/03,高雄市,左營區,果惠里,6400300-037,120.287933605791,22.6702082301656,6.000,2,6.000,2,10.000,4,80.000,4,0.0000,6.00
2024/06/03,高雄市,左營區,果峰里,6400300-038,120.288139776658,22.6691707134802,4.000,1,4.000,2,12.500,4,64.000,4,0.0000,4.00
2024/06/03,高雄市,左營區,果貿里,6400300-036,120.288399956382,22.6712708099325,4.000,1,4.000,2,6.666,3,10.000,2,0.0000,4.00
2024/06/03,高雄市,鼓山區,前峰里,6400200-003,120.283425262634,22.6642642171346,0.000,0,0.000,0,0.000,0,0.000,0,0.0000,0.00
2024/06/03,高雄市,左營區,新下里,6400300-039,120.299510729206,22.6711867566794,2.000,1,2.000,1,7.142,3,6.000,2,0.0000,2.00
2024/06/03,高雄市,左營區,新光里,6400300-042,120.303010946861,22.6773485555155,4.000,1,4.000,2,5.555,3,12.000,3,0.0200,4.00
2024/06/03,高雄市,旗津區,北汕里,6401000-008,120.275823975238,22.5969761150186,0.000,0,0.000,0,0.000,0,0.000,0,0.0000,0.00
2024/06/03,高雄市,新興區,明莊里,6400600-024,120.300493897771,22.6317551066866,0.000,0,0.000,0,0.000,0,0.000,0,0.0000,0.00
2024/06/03,高雄市,前鎮區,仁愛里,6400900-005,120.316564068599,22.5804876602519,2.000,1,2.000,1,10.000,4,22.000,3,0.0000,2.00
2024/06/04,高雄市,三民區,港新里,6400500-069,120.314544134383,22.6356521965708,2.000,1,2.000,1,6.250,3,4.000,2,0.0000,2.00
2024/06/04,高雄市,前鎮區,草衙里,6400900-001,120.3239204207,22.5728145437726,2.000,1,2.000,1,8.000,3,16.000,3,0.0000,2.00
2024/06/04,高雄市,旗津區,北汕里,6401000-008,120.275823975238,22.5969761150186,0.000,0,0.000,0,0.000,0,0.000,0,0.0000,0.00
2024/06/04,高雄市,苓雅區,五權里,6400800-041,120.322666144869,22.631852183124,0.000,0,0.000,0,0.000,0,0.000,0,0.0000,0.00
2024/06/04,高雄市,鼓山區,建國里,6400200-007,120.277364399093,22.6584496181037,0.000,0,0.000,0,0.000,0,0.000,0,0.0000,0.00
2024/06/04,高雄市,三民區,寶獅里,6400500-016,120.334456732125,22.636761074757,0.000,0,0.000,0,0.000,0,0.000,0,0.0000,0.00
2024/06/04,高雄市,三民區,寶國里,6400500-022,120.339434645291,22.6413523309642,1.333,1,1.333,1,3.846,2,4.000,2,0.0000,1.33
2024/06/04,高雄市,三民區,安發里,6400500-045,120.321273318774,22.6408244010109,4.000,1,4.000,2,18.181,5,14.000,3,0.0200,4.00
2024/06/04,高雄市,楠梓區,泰昌里,6400400-023,120.285905183896,22.7142503038407,0.000,0,0.000,0,0.000,0,0.000,0,0.0000,0.00
2024/06/04,高雄市,楠梓區,享平里,6400400-004,120.329978482674,22.7295140182813,0.000,0,0.000,0,0.000,0,0.000,0,0.0000,0.00
2024/06/04,高雄市,前鎮區,瑞祥里,6400900-049,120.327406245605,22.601611437538,4.000,1,4.000,2,8.695,3,40.000,4,0.0000,4.00
2024/06/04,高雄市,前鎮區,竹西里,6400900-044,120.319590257702,22.6101500127087,4.000,1,4.000,2,6.896,3,40.000,4,0.0000,4.00
2024/06/04,高雄市,苓雅區,正言里,6400800-060,120.326722579976,22.6303390886343,0.000,0,0.000,0,0.000,0,0.000,0,0.0000,0.00
2024/06/04,高雄市,小港區,濟南里,6401100-020,120.358973626891,22.572828591733,1.694,1,1.694,1,1.666,1,11.864,3,0.0000,1.69
2024/06/04,高雄市,苓雅區,正大里,6400800-061,120.333152546275,22.629579094131,4.000,1,4.000,2,16.666,5,46.000,4,0.0000,4.00
2024/06/04,高雄市,旗津區,中洲里,6401000-011,120.298574768594,22.574679472091,0.000,0,0.000,0,0.000,0,0.000,0,0.0000,0.00
2024/06/04,高雄市,苓雅區,正文里,6400800-059,120.327887997817,22.631913732279,2.000,1,2.000,1,6.250,3,6.000,2,0.0000,2.00
2024/06/04,高雄市,三民區,寶盛里,6400500-026,120.328340892258,22.6378378872573,2.000,1,2.000,1,7.692,3,8.000,2,0.0000,2.00
2024/06/04,高雄市,楠梓區,裕昌里,6400400-031,120.288690004616,22.7181137144403,1.960,1,1.960,1,3.571,2,19.607,3,0.0000,1.96
2024/06/04,高雄市,左營區,頂西里,6400300-021,120.290915248041,22.6864603651074,2.000,1,2.000,1,7.692,3,2.000,1,0.0000,2.00
2024/06/04,高雄市,左營區,廟東里,6400300-006,120.294569270644,22.6866320894698,0.000,0,0.000,0,0.000,0,0.000,0,0.0000,0.00
2024/06/04,高雄市,左營區,頂北里,6400300-003,120.292397648623,22.6877495483445,4.000,1,4.000,2,12.500,4,6.000,2,0.0000,4.00
2024/06/05,高雄市,左營區,新中里,6400300-041,120.309405770329,22.6700290376611,2.000,1,2.000,1,8.333,3,6.000,2,0.0000,2.00
2024/06/05,高雄市,三民區,寶民里,6400500-023,120.340890727406,22.6356501855158,2.000,1,2.000,1,4.761,2,8.000,2,0.0000,2.00
2024/06/05,高雄市,旗津區,中洲里,6401000-011,120.298574768594,22.574679472091,0.000,0,0.000,0,0.000,0,0.000,0,0.0000,0.00
2024/06/05,高雄市,前鎮區,西甲里,6400900-033,120.306952233418,22.611539170876,4.000,1,4.000,2,18.181,5,30.000,3,0.0000,4.00
2024/06/05,高雄市,前鎮區,瑞東里,6400900-050,120.329023197808,22.6045527785302,6.000,2,6.000,2,16.666,5,48.000,4,0.0000,6.00
2024/06/05,高雄市,楠梓區,廣昌里,6400400-018,120.286490484147,22.7080348633628,0.000,0,0.000,0,0.000,0,0.000,0,0.0000,0.00
2024/06/05,高雄市,鼓山區,忠正里,6400200-008,120.276929417969,22.6549457939232,0.000,0,0.000,0,0.000,0,0.000,0,0.0000,0.00
2024/06/05,高雄市,苓雅區,永康里,6400800-058,120.330049511306,22.6271069592141,4.000,1,4.000,2,16.666,5,12.000,3,0.0000,4.00
2024/06/05,高雄市,前鎮區,草衙里,6400900-001,120.3239204207,22.5728145437726,2.000,1,2.000,1,8.333,3,20.000,3,0.0000,2.00
2024/06/05,高雄市,三民區,港東里,6400500-068,120.305497595642,22.6370679627055,8.000,2,8.000,3,17.391,5,28.000,3,0.0000,8.00
2024/06/05,高雄市,鳳山區,海洋里,6401200-065,120.34719367836,22.6127133290113,0.000,0,0.000,0,0.000,0,0.000,0,0.0000,0.00
2024/06/06,高雄市,鼓山區,光榮里,6400200-004,120.280873671054,22.6581136544849,0.000,0,0.000,0,0.000,0,0.000,0,0.0000,0.00
2024/06/06,高雄市,三民區,安發里,6400500-045,120.321273318774,22.6408244010109,0.000,0,0.000,0,0.000,0,0.000,0,0.0000,0.00
2024/06/06,高雄市,新興區,浩然里,6400600-001,120.308961642018,22.624315963516,0.000,0,0.000,0,0.000,0,0.000,0,0.0000,0.00
2024/06/06,高雄市,楠梓區,裕昌里,6400400-031,120.288690004616,22.7181137144403,0.000,0,0.000,0,0.000,0,0.000,0,0.0000,0.00
2024/06/06,高雄市,前鎮區,明正里,6400900-003,120.332750525705,22.5818125779071,0.000,0,0.000,0,0.000,0,0.000,0,0.0000,0.00
2024/06/06,高雄市,旗津區,南汕里,6401000-009,120.282570424039,22.5885170766095,0.000,0,0.000,0,0.000,0,0.000,0,0.0000,0.00
2024/06/06,高雄市,旗津區,南汕里,6401000-009,120.282570424039,22.5885170766095,0.000,0,0.000,0,0.000,0,0.000,0,0.0000,0.00
2024/06/06,高雄市,前鎮區,鎮陽里,6400900-020,120.30874566653,22.5915385353213,0.000,0,0.000,0,0.000,0,0.000,0,0.0000,0.00
2024/06/06,高雄市,三民區,寶興里,6400500-019,120.328950647764,22.6439889388348,4.000,1,4.000,2,11.764,4,24.000,3,0.0000,4.00
2024/06/06,高雄市,左營區,菜公里,6400300-043,120.31178326346,22.6780117583188,0.000,0,0.000,0,0.000,0,0.000,0,0.0000,0.00
2024/06/06,高雄市,楠梓區,享平里,6400400-004,120.329978482674,22.7295140182813,1.960,1,1.960,1,2.325,1,19.607,3,0.0000,1.96
2024/06/07,高雄市,鳳山區,鎮南里,6401200-016,120.330771059431,22.5967030038254,0.000,0,0.000,0,0.000,0,0.000,0,0.0000,0.00
2024/06/07,高雄市,鳳山區,鳳崗里,6401200-007,120.358434978122,22.6281011468243,0.000,0,0.000,0,0.000,0,0.000,0,0.0000,0.00
2024/06/07,高雄市,左營區,新中里,6400300-041,120.309405770329,22.6700290376611,0.000,0,0.000,0,0.000,0,0.000,0,0.0000,0.00
2024/06/07,高雄市,三民區,寶興里,6400500-019,120.328950647764,22.6439889388348,8.000,2,8.000,3,18.181,5,140.000,5,0.0000,8.00
2024/06/07,高雄市,三民區,寶興里,6400500-019,120.328950647764,22.6439889388348,2.000,1,2.000,1,9.090,3,4.000,2,0.0000,2.00
2024/06/07,高雄市,三民區,寶興里,6400500-019,120.328950647764,22.6439889388348,1.149,1,1.149,1,1.515,1,1.149,1,0.0000,1.14
2024/06/07,高雄市,三民區,寶興里,6400500-019,120.328950647764,22.6439889388348,4.000,1,4.000,2,12.500,4,16.000,3,0.0000,4.00
2024/06/07,高雄市,鼓山區,民強里,6400200-013,120.280299584492,22.6519069610492,0.000,0,0.000,0,0.000,0,0.000,0,0.0000,0.00
2024/06/07,高雄市,三民區,寶安里,6400500-027,120.328894870274,22.6403596775204,2.000,1,2.000,1,7.692,3,8.000,2,0.0000,2.00
2024/06/07,高雄市,旗津區,南汕里,6401000-009,120.282570424039,22.5885170766095,0.000,0,0.000,0,0.000,0,0.000,0,0.0000,0.00
2024/06/07,高雄市,三民區,寶國里,6400500-022,120.339434645291,22.6413523309642,4.000,1,4.000,2,6.896,3,22.000,3,0.0000,4.00
2024/06/07,高雄市,前鎮區,草衙里,6400900-001,120.3239204207,22.5728145437726,2.000,1,2.000,1,5.263,2,20.000,3,0.0000,2.00
2024/06/07,高雄市,前鎮區,草衙里,6400900-001,120.3239204207,22.5728145437726,0.666,1,0.666,1,2.127,1,3.333,1,0.0000,0.66
2024/06/07,高雄市,鳳山區,一甲里,6401200-028,120.337238854419,22.6006394913022,0.000,0,0.000,0,0.000,0,0.000,0,0.0000,0.00
2024/06/08,高雄市,鳳山區,鎮北里,6401200-009,120.371069257909,22.6414368421992,16.000,3,14.000,3,53.333,9,122.000,5,0.0000,16.00
2024/06/09,高雄市,鳳山區,鎮北里,6401200-009,120.371069257909,22.6414368421992,4.000,1,4.000,2,8.333,3,76.000,4,0.0000,4.00
2024/06/11,高雄市,鳳山區,龍成里,6401200-073,120.328455658923,22.5983640464793,4.000,1,4.000,2,10.526,4,66.000,4,0.0000,4.00
2024/06/11,高雄市,鳳山區,鎮北里,6401200-009,120.371069257909,22.6414368421992,8.000,2,7.333,2,25.000,6,28.000,3,0.0200,8.00
2024/06/11,高雄市,大寮區,江山里,6401400-022,120.413600326151,22.6378919062832,4.000,1,4.000,2,10.000,4,8.000,2,0.0000,4.00
2024/06/11,高雄市,前鎮區,前鎮里,6400900-015,120.308199911937,22.5887970225028,0.000,0,0.000,0,0.000,0,0.000,0,0.0000,0.00
2024/06/11,高雄市,苓雅區,日中里,6400800-018,120.309180218511,22.6171847743391,6.000,2,6.000,2,9.677,4,26.000,3,0.0000,6.00
2024/06/11,高雄市,三民區,本館里,6400500-008,120.330896813772,22.65605117948,2.000,1,2.000,1,4.545,2,10.000,2,0.0000,2.00
2024/06/11,高雄市,鼓山區,正德里,6400200-011,120.269435481657,22.6490200829927,0.000,0,0.000,0,0.000,0,0.000,0,0.0000,0.00
2024/06/11,高雄市,小港區,正苓里,6401100-014,120.352857008023,22.5679807455888,2.000,1,2.000,1,8.333,3,4.000,2,0.0000,2.00
2024/06/11,高雄市,左營區,海勝里,6400300-032,120.290489199325,22.67285078766,0.000,0,0.000,0,0.000,0,0.000,0,0.0000,0.00
2024/06/11,高雄市,鳳山區,福祥里,6401200-077,120.325500351956,22.5925950797911,0.000,0,0.000,0,0.000,0,0.000,0,0.0000,0.00
2024/06/11,高雄市,鳳山區,埤頂里,6401200-014,120.377253069125,22.6309206742823,4.000,1,4.000,2,16.666,5,12.000,3,0.0000,4.00
2024/06/11,高雄市,鳳山區,保安里,6401200-078,120.348561188549,22.5954298103048,10.000,3,10.000,3,29.411,7,60.000,4,0.0400,10.00
2024/06/11,高雄市,楠梓區,五常里,6400400-003,120.334754174345,22.7287993585894,1.960,1,1.960,1,2.272,1,0.000,0,0.0000,1.96
2024/06/12,高雄市,鳳山區,和德里,6401200-006,120.360327775131,22.6194922589586,14.000,3,14.000,3,38.888,8,74.000,4,0.0000,14.00
2024/06/12,高雄市,鼓山區,河邊里,6400200-027,120.282749887326,22.6397940385515,0.000,0,0.000,0,0.000,0,0.000,0,0.0000,0.00
2024/06/12,高雄市,旗津區,南汕里,6401000-009,120.282570424039,22.5885170766095,0.000,0,0.000,0,0.000,0,0.000,0,0.0000,0.00
2024/06/12,高雄市,三民區,寶國里,6400500-022,120.339434645291,22.6413523309642,4.000,1,4.000,2,14.285,4,18.000,3,0.0000,4.00
2024/06/12,高雄市,三民區,寶華里,6400500-021,120.34255250166,22.6377793687028,4.000,1,4.000,2,6.666,3,14.000,3,0.0000,4.00
2024/06/12,高雄市,左營區,新光里,6400300-042,120.303010946861,22.6773485555155,0.000,0,0.000,0,0.000,0,0.000,0,0.0000,0.00
2024/06/12,高雄市,三民區,寶業里,6400500-025,120.345282811549,22.6398907243105,2.000,1,2.000,1,8.333,3,8.000,2,0.0000,2.00
2024/06/12,高雄市,楠梓區,翠屏里,6400400-014,120.303801786057,22.727704974475,0.000,0,0.000,0,0.000,0,0.000,0,0.0000,0.00
2024/06/12,高雄市,前鎮區,明孝里,6400900-002,120.317849157573,22.5703852900333,0.000,0,0.000,0,0.000,0,0.000,0,0.0000,0.00
2024/06/12,高雄市,鳳山區,鎮北里,6401200-009,120.371069257909,22.6414368421992,15.463,3,13.402,3,27.272,6,129.381,5,0.0000,15.46
2024/06/13,高雄市,鳳山區,鎮北里,6401200-009,120.371069257909,22.6414368421992,5.454,2,3.636,2,23.076,6,20.000,3,0.0000,5.45
2024/06/13,高雄市,鳳山區,和興里,6401200-046,120.355396738715,22.6152363069927,4.705,2,4.705,2,10.256,4,31.764,4,0.0000,4.70
2024/06/13,高雄市,前鎮區,明孝里,6400900-002,120.317849157573,22.5703852900333,0.000,0,0.000,0,0.000,0,0.000,0,0.0000,0.00
2024/06/13,高雄市,前鎮區,明孝里,6400900-002,120.317849157573,22.5703852900333,0.000,0,0.000,0,0.000,0,0.000,0,0.0000,0.00
2024/06/13,高雄市,旗津區,上竹里,6401000-010,120.290377162501,22.5795722576665,0.000,0,0.000,0,0.000,0,0.000,0,0.0000,0.00
2024/06/13,高雄市,左營區,埤北里,6400300-030,120.289652020483,22.6792297777538,0.000,0,0.000,0,0.000,0,0.000,0,0.0000,0.00
2024/06/13,高雄市,旗津區,中洲里,6401000-011,120.298574768594,22.574679472091,0.000,0,0.000,0,0.000,0,0.000,0,0.0000,0.00
2024/06/13,高雄市,前鎮區,瑞誠里,6400900-058,120.329820769296,22.6118247030278,0.000,0,0.000,0,0.000,0,0.000,0,0.0000,0.00
2024/06/13,高雄市,三民區,寶安里,6400500-027,120.328894870274,22.6403596775204,0.000,0,0.000,0,0.000,0,0.000,0,0.0000,0.00
2024/06/13,高雄市,三民區,本上里,6400500-014,120.34026716919,22.6455013713115,2.000,1,2.000,1,5.263,2,4.000,2,0.0000,2.00
2024/06/13,高雄市,鳳山區,和德里,6401200-006,120.360327775131,22.6194922589586,6.000,2,6.000,2,12.000,4,10.000,2,0.0800,6.00
2024/06/13,高雄市,鼓山區,龍子里,6400200-015,120.298611957205,22.6561209147425,0.000,0,0.000,0,0.000,0,0.000,0,0.0000,0.00
2024/06/13,高雄市,鳳山區,忠誠里,6401200-024,120.36735399154,22.6441794291024,1.052,1,1.052,1,3.125,2,21.052,3,0.0000,1.05
2024/06/13,高雄市,鳳山區,武松里,6401200-058,120.365593083589,22.6368028852987,20.000,4,20.000,4,31.914,8,212.000,5,0.0266,20.00
2024/06/14,高雄市,鼓山區,麗興里,6400200-031,120.279801999859,22.6186603577359,4.000,1,4.000,2,15.384,5,16.000,3,0.0000,4.00
2024/06/14,高雄市,左營區,廍北里,6400300-027,120.288593206158,22.686006800988,0.000,0,0.000,0,0.000,0,0.000,0,0.0000,0.00
2024/06/14,高雄市,楠梓區,翠屏里,6400400-014,120.303801786057,22.727704974475,0.000,0,0.000,0,0.000,0,0.000,0,0.0000,0.00
2024/06/14,高雄市,旗津區,上竹里,6401000-010,120.290377162501,22.5795722576665,0.000,0,0.000,0,0.000,0,0.000,0,0.0000,0.00
2024/06/14,高雄市,旗津區,上竹里,6401000-010,120.290377162501,22.5795722576665,0.000,0,0.000,0,0.000,0,0.000,0,0.0000,0.00
2024/06/14,高雄市,前鎮區,明孝里,6400900-002,120.317849157573,22.5703852900333,0.666,1,0.666,1,3.225,2,3.333,1,0.0000,0.66
2024/06/14,高雄市,鳳山區,善美里,6401200-075,120.334121963659,22.6014008783692,0.000,0,0.000,0,0.000,0,0.000,0,0.0000,0.00
2024/06/14,高雄市,鳳山區,鎮北里,6401200-009,120.371069257909,22.6414368421992,2.857,1,2.857,1,5.128,2,8.571,2,0.0000,2.85
2024/06/15,高雄市,鳳山區,鎮北里,6401200-009,120.371069257909,22.6414368421992,2.000,1,2.000,1,9.090,3,8.000,2,0.0000,2.00
2024/06/15,高雄市,鳳山區,和興里,6401200-046,120.355396738715,22.6152363069927,4.000,1,4.000,2,15.384,5,84.000,4,0.0000,4.00
2024/06/15,高雄市,鳳山區,福興里,6401200-029,120.327418777294,22.5874484822116,10.000,3,10.000,3,29.411,7,40.000,4,0.0000,10.00
2024/06/15,高雄市,鳳山區,瑞興里,6401200-031,120.367370042216,22.6284701089782,4.000,1,4.000,2,13.333,4,12.000,3,0.0000,4.00
2024/06/17,高雄市,鳳山區,福興里,6401200-029,120.327418777294,22.5874484822116,2.000,1,2.000,1,7.142,3,10.000,2,0.0000,2.00
2024/06/17,高雄市,鼓山區,雄峰里,6400200-002,120.284714267641,22.6688155905084,0.000,0,0.000,0,0.000,0,0.000,0,0.0000,0.00
2024/06/17,高雄市,左營區,明建里,6400300-019,120.281666350531,22.6953115449162,2.000,1,2.000,1,11.111,4,4.000,2,0.0000,2.00
2024/06/17,高雄市,鳳山區,過埤里,6401200-040,120.363015132598,22.5984603438942,0.000,0,0.000,0,0.000,0,0.000,0,0.0000,0.00
2024/06/17,高雄市,鳳山區,鎮北里,6401200-009,120.371069257909,22.6414368421992,0.000,0,0.000,0,0.000,0,0.000,0,0.0000,0.00
2024/06/17,高雄市,新興區,秋山里,6400600-026,120.300708740563,22.6336756670064,0.000,0,0.000,0,0.000,0,0.000,0,0.0000,0.00
2024/06/17,高雄市,小港區,港明里,6401100-005,120.332126697236,22.569126077603,1.923,1,1.923,1,1.923,1,3.846,2,0.0000,1.92
2024/06/17,高雄市,小港區,港明里,6401100-005,120.332126697236,22.569126077603,0.000,0,0.000,0,0.000,0,0.000,0,0.0000,0.00
2024/06/18,高雄市,旗津區,上竹里,6401000-010,120.290377162501,22.5795722576665,0.000,0,0.000,0,0.000,0,0.000,0,0.0000,0.00
2024/06/18,高雄市,三民區,寶業里,6400500-025,120.345282811549,22.6398907243105,0.000,0,0.000,0,0.000,0,0.000,0,0.0000,0.00
2024/06/18,高雄市,左營區,埤北里,6400300-030,120.289652020483,22.6792297777538,2.000,1,2.000,1,11.111,4,2.000,1,0.0000,2.00
2024/06/18,高雄市,楠梓區,清豐里,6400400-001,120.331135228679,22.7441569161639,0.000,0,0.000,0,0.000,0,0.000,0,0.0000,0.00
2024/06/18,高雄市,鳳山區,鎮北里,6401200-009,120.371069257909,22.6414368421992,0.000,0,0.000,0,0.000,0,0.000,0,0.0000,0.00
2024/06/18,高雄市,鳳山區,新武里,6401200-066,120.339017220432,22.6081792300411,0.000,0,0.000,0,0.000,0,0.000,0,0.0000,0.00
2024/06/18,高雄市,三民區,本揚里,6400500-015,120.344965318109,22.6447922480706,0.000,0,0.000,0,0.000,0,0.000,0,0.0000,0.00
2024/06/18,高雄市,三民區,寶民里,6400500-023,120.340890727406,22.6356501855158,1.960,1,1.960,1,4.545,2,1.960,1,0.0000,1.96
2024/06/18,高雄市,鼓山區,華豐里,6400200-018,120.295878159141,22.6680225306275,0.000,0,0.000,0,0.000,0,0.000,0,0.0000,0.00
2024/06/18,高雄市,鳳山區,保安里,6401200-078,120.348561188549,22.5954298103048,0.000,0,0.000,0,0.000,0,0.000,0,0.0000,0.00
2024/06/18,高雄市,鳳山區,二甲里,6401200-072,120.340365194283,22.5967376032008,0.000,0,0.000,0,0.000,0,0.000,0,0.0000,0.00
2024/06/19,高雄市,鳳山區,武松里,6401200-058,120.365593083589,22.6368028852987,0.000,0,0.000,0,0.000,0,0.000,0,0.0000,0.00
2024/06/19,高雄市,鳳山區,富甲里,6401200-054,120.334572019917,22.5988781382186,0.000,0,0.000,0,0.000,0,0.000,0,0.0000,0.00
2024/06/19,高雄市,三民區,寶民里,6400500-023,120.340890727406,22.6356501855158,0.000,0,0.000,0,0.000,0,0.000,0,0.0000,0.00
2024/06/19,高雄市,三民區,本揚里,6400500-015,120.344965318109,22.6447922480706,0.000,0,0.000,0,0.000,0,0.000,0,0.0000,0.00
2024/06/19,高雄市,左營區,海勝里,6400300-032,120.290489199325,22.67285078766,4.000,1,4.000,2,40.000,8,24.000,3,0.0000,4.00
2024/06/19,高雄市,鳳山區,中和里,6401200-008,120.346870407089,22.6266337764999,6.000,2,6.000,2,21.428,6,78.000,4,0.0000,6.00
2024/06/19,高雄市,楠梓區,國昌里,6400400-032,120.286820330139,22.7213391315667,0.000,0,0.000,0,0.000,0,0.000,0,0.0000,0.00
2024/06/19,高雄市,三民區,寶華里,6400500-021,120.34255250166,22.6377793687028,2.000,1,2.000,1,5.882,3,4.000,2,0.0000,2.00
2024/06/19,高雄市,三民區,寶國里,6400500-022,120.339434645291,22.6413523309642,0.000,0,0.000,0,0.000,0,0.000,0,0.0000,0.00
2024/06/19,高雄市,鼓山區,鼓岩里,6400200-021,120.272750981554,22.6411566815614,0.000,0,0.000,0,0.000,0,0.000,0,0.0000,0.00
2024/06/19,高雄市,楠梓區,久昌里,6400400-019,120.284272495272,22.7095103097005,1.960,1,1.960,1,2.857,2,9.803,2,0.0000,1.96
2024/06/19,高雄市,旗津區,上竹里,6401000-010,120.290377162501,22.5795722576665,0.000,0,0.000,0,0.000,0,0.000,0,0.0000,0.00
2024/06/20,高雄市,旗津區,中興里,6401000-013,120.303247693352,22.564671286164,0.000,0,0.000,0,0.000,0,0.000,0,0.0000,0.00
2024/06/20,高雄市,旗津區,中興里,6401000-013,120.303247693352,22.564671286164,0.000,0,0.000,0,0.000,0,0.000,0,0.0000,0.00
2024/06/20,高雄市,左營區,果峰里,6400300-038,120.288139776658,22.6691707134802,0.000,0,0.000,0,0.000,0,0.000,0,0.0000,0.00
2024/06/20,高雄市,鼓山區,哨船頭里,6400200-037,120.268209377984,22.6205657353184,0.000,0,0.000,0,0.000,0,0.000,0,0.0000,0.00
2024/06/20,高雄市,三民區,寶獅里,6400500-016,120.334456732125,22.636761074757,1.923,1,1.923,1,2.272,1,5.769,2,0.0000,1.92
2024/06/20,高雄市,楠梓區,清豐里,6400400-001,120.331135228679,22.7441569161639,1.960,1,1.960,1,2.857,2,9.803,2,0.0000,1.96
2024/06/20,高雄市,鳳山區,鎮北里,6401200-009,120.371069257909,22.6414368421992,1.063,1,1.063,1,4.444,2,5.319,2,0.0000,1.06
2024/06/20,高雄市,三民區,寶龍里,6400500-028,120.323519935066,22.6455805107694,0.000,0,0.000,0,0.000,0,0.000,0,0.0000,0.00
2024/06/21,高雄市,三民區,灣利里,6400500-036,120.324268466316,22.6527245026905,0.000,0,0.000,0,0.000,0,0.000,0,0.0000,0.00
2024/06/21,高雄市,鳳山區,南和里,6401200-076,120.333563994491,22.5953498984305,0.000,0,0.000,0,0.000,0,0.000,0,0.0000,0.00
2024/06/21,高雄市,鳳山區,鎮南里,6401200-016,120.330771059431,22.5967030038254,0.000,0,0.000,0,0.000,0,0.000,0,0.0000,0.00
2024/06/21,高雄市,鼓山區,明誠里,6400200-017,120.297928763669,22.6634651243903,0.000,0,0.000,0,0.000,0,0.000,0,0.0000,0.00
2024/06/21,高雄市,鳳山區,武松里,6401200-058,120.365593083589,22.6368028852987,2.000,1,2.000,1,5.263,2,4.000,2,0.0000,2.00
2024/06/21,高雄市,三民區,本文里,6400500-010,120.325746148259,22.6534530641493,0.000,0,0.000,0,0.000,0,0.000,0,0.0000,0.00
2024/06/21,高雄市,左營區,進學里,6400300-001,120.295109310707,22.6919596929904,2.000,1,2.000,1,9.090,3,2.000,1,0.0000,2.00
2024/06/21,高雄市,旗津區,中興里,6401000-013,120.303247693352,22.564671286164,0.000,0,0.000,0,0.000,0,0.000,0,0.0000,0.00
2024/06/21,高雄市,旗津區,中興里,6401000-013,120.303247693352,22.564671286164,0.000,0,0.000,0,0.000,0,0.000,0,0.0000,0.00
2024/06/24,高雄市,小港區,三苓里,6401100-013,120.34870102616,22.5663477694735,0.000,0,0.000,0,0.000,0,0.000,0,0.0000,0.00
2024/06/24,高雄市,三民區,本館里,6400500-008,120.330896813772,22.65605117948,0.000,0,0.000,0,0.000,0,0.000,0,0.0000,0.00
2024/06/24,高雄市,三民區,本和里,6400500-009,120.326183312716,22.6568510440827,0.000,0,0.000,0,0.000,0,0.000,0,0.0000,0.00
2024/06/24,高雄市,鳳山區,大德里,6401200-057,120.332293913807,22.5894412055356,10.000,3,10.000,3,13.513,4,120.000,5,0.0000,10.00
2024/06/24,高雄市,鼓山區,鼓峰里,6400200-001,120.286679120953,22.6671705056338,0.000,0,0.000,0,0.000,0,0.000,0,0.0000,0.00
2024/06/24,高雄市,左營區,福山里,6400300-044,120.31688893937,22.6853960803094,2.000,1,2.000,1,20.000,5,10.000,2,0.0000,2.00
2024/06/24,高雄市,旗津區,旗下里,6401000-001,120.265172490521,22.6137998286386,0.000,0,0.000,0,0.000,0,0.000,0,0.0000,0.00
2024/06/24,高雄市,前鎮區,明正里,6400900-003,120.332750525705,22.5818125779071,0.000,0,0.000,0,0.000,0,0.000,0,0.0000,0.00
2024/06/24,高雄市,前鎮區,明義里,6400900-004,120.328986284207,22.5756689943274,0.000,0,0.000,0,0.000,0,0.000,0,0.0000,0.00
2024/06/24,高雄市,前鎮區,明義里,6400900-004,120.328986284207,22.5756689943274,1.000,1,1.000,1,4.000,2,8.000,2,0.0000,1.00
2024/06/25,高雄市,新興區,順昌里,6400600-013,120.314968373296,22.6342364724023,0.000,0,0.000,0,0.000,0,0.000,0,0.0000,0.00
2024/06/25,高雄市,前鎮區,明正里,6400900-003,120.332750525705,22.5818125779071,1.000,1,1.000,1,4.545,2,5.000,2,0.0000,1.00
2024/06/25,高雄市,前鎮區,明正里,6400900-003,120.332750525705,22.5818125779071,0.666,1,0.666,1,3.571,2,5.333,2,0.0000,0.66
2024/06/25,高雄市,旗津區,旗下里,6401000-001,120.265172490521,22.6137998286386,0.000,0,0.000,0,0.000,0,0.000,0,0.0000,0.00
2024/06/25,高雄市,前金區,長城里,6400700-003,120.295178776483,22.6341933408743,0.000,0,0.000,0,0.000,0,0.000,0,0.0000,0.00
2024/06/25,高雄市,小港區,順苓里,6401100-015,120.356551896071,22.5676249078958,0.000,0,0.000,0,0.000,0,0.000,0,0.0000,0.00
2024/06/25,高雄市,左營區,菜公里,6400300-043,120.31178326346,22.6780117583188,2.000,1,2.000,1,20.000,5,12.000,3,0.0000,2.00
2024/06/25,高雄市,三民區,寶泰里,6400500-018,120.333683967658,22.6434770878545,0.000,0,0.000,0,0.000,0,0.000,0,0.0000,0.00
2024/06/25,高雄市,三民區,寶德里,6400500-017,120.335090240253,22.6404802413739,0.000,0,0.000,0,0.000,0,0.000,0,0.0000,0.00
2024/06/25,高雄市,三民區,寶盛里,6400500-026,120.328340892258,22.6378378872573,0.000,0,0.000,0,0.000,0,0.000,0,0.0000,0.00
2024/06/25,高雄市,鼓山區,雄峰里,6400200-002,120.284714267641,22.6688155905084,0.000,0,0.000,0,0.000,0,0.000,0,0.0000,0.00
2024/06/25,高雄市,鳳山區,北門里,6401200-053,120.368218009381,22.6341638666377,0.000,0,0.000,0,0.000,0,0.000,0,0.0000,0.00
2024/06/25,高雄市,鳳山區,福興里,6401200-029,120.327418777294,22.5874484822116,0.000,0,0.000,0,0.000,0,0.000,0,0.0000,0.00
2024/06/25,高雄市,前金區,長生里,6400700-017,120.29864010388,22.6245059048261,0.000,0,0.000,0,0.000,0,0.000,0,0.0000,0.00
2024/06/25,高雄市,新興區,東坡里,6400600-032,120.303191510919,22.6301438191217,0.000,0,0.000,0,0.000,0,0.000,0,0.0000,0.00
2024/06/26,高雄市,小港區,中厝里,6401100-032,120.342894082979,22.5775248215717,0.000,0,0.000,0,0.000,0,0.000,0,0.0000,0.00
2024/06/26,高雄市,鳳山區,鎮北里,6401200-009,120.371069257909,22.6414368421992,3.000,1,3.000,1,10.000,4,18.000,3,0.0100,3.00
2024/06/26,高雄市,鳳山區,正義里,6401200-027,120.34031583266,22.6028596555928,0.000,0,0.000,0,0.000,0,0.000,0,0.0000,0.00
2024/06/26,高雄市,鳳山區,忠誠里,6401200-024,120.36735399154,22.6441794291024,4.000,1,2.000,1,12.500,4,6.000,2,0.0000,4.00
2024/06/26,高雄市,三民區,寶慶里,6400500-024,120.33881396504,22.6384818198214,2.000,1,2.000,1,9.090,3,10.000,2,0.0000,2.00
2024/06/26,高雄市,左營區,屏山里,6400300-011,120.300953865726,22.6925214721205,2.000,1,2.000,1,6.666,3,4.000,2,0.0000,2.00
2024/06/26,高雄市,三民區,寶珠里,6400500-029,120.328669260092,22.6487000057759,0.000,0,0.000,0,0.000,0,0.000,0,0.0000,0.00
2024/06/26,高雄市,三民區,寶玉里,6400500-030,120.334359802636,22.6472108059855,0.000,0,0.000,0,0.000,0,0.000,0,0.0000,0.00
2024/06/26,高雄市,鼓山區,綠川里,6400200-028,120.283590843141,22.6357194510053,0.000,0,0.000,0,0.000,0,0.000,0,0.0000,0.00
2024/06/26,高雄市,旗津區,旗下里,6401000-001,120.265172490521,22.6137998286386,0.000,0,0.000,0,0.000,0,0.000,0,0.0000,0.00
2024/06/26,高雄市,前鎮區,明正里,6400900-003,120.332750525705,22.5818125779071,2.000,1,2.000,1,11.111,4,10.000,2,0.0000,2.00
2024/06/26,高雄市,前鎮區,明正里,6400900-003,120.332750525705,22.5818125779071,0.000,0,0.000,0,0.000,0,0.000,0,0.0000,0.00
2024/06/26,高雄市,旗津區,旗下里,6401000-001,120.265172490521,22.6137998286386,0.000,0,0.000,0,0.000,0,0.000,0,0.0000,0.00
2024/06/26,高雄市,前鎮區,瑞誠里,6400900-058,120.329820769296,22.6118247030278,2.000,1,2.000,1,9.090,3,8.000,2,0.0000,2.00
2024/06/27,高雄市,苓雅區,衛武里,6400800-069,120.343555595845,22.6263332104837,0.000,0,0.000,0,0.000,0,0.000,0,0.0000,0.00
2024/06/27,高雄市,旗津區,永安里,6401000-002,120.26646295186,22.6118079890027,0.000,0,0.000,0,0.000,0,0.000,0,0.0000,0.00
2024/06/27,高雄市,旗津區,永安里,6401000-002,120.26646295186,22.6118079890027,0.000,0,0.000,0,0.000,0,0.000,0,0.0000,0.00
2024/06/27,高雄市,左營區,頂北里,6400300-003,120.292397648623,22.6877495483445,0.000,0,0.000,0,0.000,0,0.000,0,0.0000,0.00
2024/06/27,高雄市,三民區,鼎中里,6400500-006,120.320587152781,22.6636070175903,0.000,0,0.000,0,0.000,0,0.000,0,0.0000,0.00
2024/06/27,高雄市,三民區,寶中里,6400500-020,120.324894809636,22.6431687439934,0.000,0,0.000,0,0.000,0,0.000,0,0.0000,0.00
2024/06/27,高雄市,鳳山區,國泰里,6401200-034,120.352044862935,22.6160073785672,0.000,0,0.000,0,0.000,0,0.000,0,0.0000,0.00
2024/06/27,高雄市,茄萣區,崎漏里,6402600-015,120.203519530237,22.8711195521822,4.000,1,4.000,2,20.000,5,22.000,3,0.0000,4.00
2024/06/27,高雄市,三民區,鼎金里,6400500-001,120.331152673214,22.6669546360114,0.000,0,0.000,0,0.000,0,0.000,0,0.0000,0.00
2024/06/27,高雄市,三民區,鼎西里,6400500-005,120.324835266911,22.6626096574435,0.000,0,0.000,0,0.000,0,0.000,0,0.0000,0.00
2024/06/27,高雄市,鼓山區,山下里,6400200-026,120.27915104421,22.629507249341,0.000,0,0.000,0,0.000,0,0.000,0,0.0000,0.00
2024/06/27,高雄市,三民區,灣愛里,6400500-032,120.319613193373,22.6590415789439,0.000,0,0.000,0,0.000,0,0.000,0,0.0000,0.00
2024/06/27,高雄市,三民區,灣子里,6400500-031,120.317739515641,22.6558296164736,0.000,0,0.000,0,0.000,0,0.000,0,0.0000,0.00
2024/06/27,高雄市,楠梓區,大昌里,6400400-020,120.290015964165,22.707398850523,0.000,0,0.000,0,0.000,0,0.000,0,0.0000,0.00
2024/06/28,高雄市,三民區,灣復里,6400500-037,120.316136826295,22.6511391663978,2.000,1,2.000,1,6.666,3,4.000,2,0.0000,2.00
2024/06/28,高雄市,鼓山區,光化里,6400200-025,120.279226006527,22.6325520373303,0.000,0,0.000,0,0.000,0,0.000,0,0.0000,0.00
2024/06/28,高雄市,楠梓區,清豐里,6400400-001,120.331135228679,22.7441569161639,0.000,0,0.000,0,0.000,0,0.000,0,0.0000,0.00
2024/06/28,高雄市,旗津區,振興里,6401000-003,120.270350586272,22.6120357318515,0.000,0,0.000,0,0.000,0,0.000,0,0.0000,0.00
2024/06/28,高雄市,旗津區,振興里,6401000-003,120.270350586272,22.6120357318515,0.000,0,0.000,0,0.000,0,0.000,0,0.0000,0.00
2024/06/28,高雄市,鳳山區,南興里,6401200-005,120.360724416254,22.6222311457478,4.000,1,4.000,2,11.111,4,100.000,4,0.0000,4.00
2024/06/28,高雄市,鳳山區,縣口里,6401200-001,120.358112203895,22.6255300612598,2.000,1,2.000,1,4.545,2,12.000,3,0.0000,2.00
2024/06/28,高雄市,鳳山區,光明里,6401200-003,120.360738486125,22.6267432863136,6.000,2,6.000,2,20.000,5,18.000,3,0.0000,6.00
2024/06/28,高雄市,鳳山區,興仁里,6401200-042,120.355939574952,22.6221043223902,2.000,1,2.000,1,3.225,2,2.000,1,0.0000,2.00
2024/06/28,高雄市,鳳山區,三民里,6401200-051,120.363320555126,22.6242235948143,2.000,1,2.000,1,7.142,3,2.000,1,0.0000,2.00
2024/06/28,高雄市,鳳山區,成功里,6401200-002,120.358387069709,22.6238360102179,0.000,0,0.000,0,0.000,0,0.000,0,0.0000,0.00
2024/06/28,高雄市,鳳山區,國泰里,6401200-034,120.352044862935,22.6160073785672,6.000,2,4.000,2,21.428,6,90.000,4,0.0000,6.00
2024/06/28,高雄市,鳳山區,新強里,6401200-033,120.341365282297,22.6171981687649,0.000,0,0.000,0,0.000,0,0.000,0,0.0000,0.00
2024/06/28,高雄市,鳳山區,新興里,6401200-021,120.362920401491,22.6269666359254,2.000,1,2.000,1,3.846,2,4.000,2,0.0000,2.00
2024/06/28,高雄市,鳳山區,文英里,6401200-011,120.358754779824,22.6372089066077,4.000,1,4.000,2,25.000,6,26.000,3,0.0000,4.00
2024/06/28,高雄市,鳳山區,北門里,6401200-053,120.368218009381,22.6341638666377,2.000,1,2.000,1,4.761,2,2.000,1,0.0000,2.00
2024/06/28,高雄市,鳳山區,文華里,6401200-056,120.356133941461,22.6340895972997,1.960,1,1.960,1,8.333,3,9.803,2,0.0000,1.96
2024/06/28,高雄市,左營區,新上里,6400300-040,120.308224914317,22.6621251399324,2.000,1,2.000,1,8.333,3,6.000,2,0.0000,2.00
2024/06/28,高雄市,鳳山區,文山里,6401200-048,120.359541214015,22.6421832358072,10.000,3,8.000,3,15.151,5,18.000,3,0.0000,10.00
2024/06/28,高雄市,三民區,灣中里,6400500-033,120.318308506966,22.6494968620294,0.000,0,0.000,0,0.000,0,0.000,0,0.0000,0.00
2024/06/28,高雄市,三民區,灣興里,6400500-040,120.312428376621,22.653409610273,0.000,0,0.000,0,0.000,0,0.000,0,0.0000,0.00
2024/07/01,高雄市,三民區,灣華里,6400500-034,120.321517594587,22.6506814737535,0.000,0,0.000,0,0.000,0,0.000,0,0.0000,0.00
2024/07/01,高雄市,鳳山區,五福里,6401200-043,120.326258579286,22.5902779810772,7.142,2,7.142,2,19.444,5,26.530,3,0.0000,7.14
2024/07/01,高雄市,鼓山區,內惟里,6400200-006,120.279135776638,22.6612783548734,0.000,0,0.000,0,0.000,0,0.000,0,0.0000,0.00
2024/07/01,高雄市,前鎮區,瑞誠里,6400900-058,120.329820769296,22.6118247030278,0.000,0,0.000,0,0.000,0,0.000,0,0.0000,0.00
2024/07/01,高雄市,前鎮區,瑞文里,6400900-059,120.330674327058,22.6100914115114,0.000,0,0.000,0,0.000,0,0.000,0,0.0000,0.00
2024/07/01,高雄市,鳳山區,大德里,6401200-057,120.332293913807,22.5894412055356,0.000,0,0.000,0,0.000,0,0.000,0,0.0000,0.00
2024/07/01,高雄市,鳳山區,福興里,6401200-029,120.327418777294,22.5874484822116,2.647,1,2.647,1,9.183,3,46.470,4,0.0000,2.64
2024/07/01,高雄市,鳳山區,福興里,6401200-029,120.327418777294,22.5874484822116,8.641,2,7.407,2,23.333,6,59.259,4,0.0061,8.64
2024/07/01,高雄市,楠梓區,五常里,6400400-003,120.334754174345,22.7287993585894,0.000,0,0.000,0,0.000,0,0.000,0,0.0000,0.00
2024/07/01,高雄市,鳳山區,南成里,6401200-055,120.342891135404,22.5894758266154,0.000,0,0.000,0,0.000,0,0.000,0,0.0000,0.00
2024/07/01,高雄市,前鎮區,瑞華里,6400900-060,120.335941673928,22.6081979817943,0.000,0,0.000,0,0.000,0,0.000,0,0.0000,0.00
2024/07/01,高雄市,三民區,鼎西里,6400500-005,120.324835266911,22.6626096574435,2.000,1,2.000,1,11.111,4,8.000,2,0.0000,2.00
2024/07/01,高雄市,三民區,鼎金里,6400500-001,120.331152673214,22.6669546360114,0.000,0,0.000,0,0.000,0,0.000,0,0.0000,0.00
2024/07/01,高雄市,三民區,灣勝里,6400500-035,120.322921138597,22.6517019672004,0.000,0,0.000,0,0.000,0,0.000,0,0.0000,0.00
2024/07/01,高雄市,左營區,尾北里,6400300-009,120.302673128867,22.6877706917203,2.000,1,2.000,1,7.692,3,4.000,2,0.0000,2.00
2024/07/02,高雄市,三民區,灣成里,6400500-041,120.321190653717,22.6555323516911,0.000,0,0.000,0,0.000,0,0.000,0,0.0000,0.00
2024/07/02,高雄市,三民區,鼎泰里,6400500-007,120.315713644991,22.6635537281643,2.000,1,2.000,1,6.250,3,4.000,2,0.0000,2.00
2024/07/02,高雄市,前鎮區,瑞華里,6400900-060,120.335941673928,22.6081979817943,1.000,1,1.000,1,5.555,3,5.000,2,0.0000,1.00
2024/07/02,高雄市,旗津區,振興里,6401000-003,120.270350586272,22.6120357318515,0.000,0,0.000,0,0.000,0,0.000,0,0.0000,0.00
2024/07/02,高雄市,旗津區,慈愛里,6401000-004,120.269583335891,22.6095450666034,0.000,0,0.000,0,0.000,0,0.000,0,0.0000,0.00
2024/07/02,高雄市,鳳山區,新富里,6401200-036,120.345148324215,22.6150752842265,0.000,0,0.000,0,0.000,0,0.000,0,0.0000,0.00
2024/07/02,高雄市,鳳山區,新樂里,6401200-067,120.341981384538,22.6095138770689,0.000,0,0.000,0,0.000,0,0.000,0,0.0000,0.00
2024/07/02,高雄市,楠梓區,建昌里,6400400-025,120.291364672664,22.7134342138207,0.000,0,0.000,0,0.000,0,0.000,0,0.0000,0.00
2024/07/02,高雄市,前鎮區,瑞南里,6400900-047,120.324202027174,22.5994662301704,0.000,0,0.000,0,0.000,0,0.000,0,0.0000,0.00
2024/07/02,高雄市,鼓山區,平和里,6400200-012,120.277677872996,22.651327682128,0.000,0,0.000,0,0.000,0,0.000,0,0.0000,0.00
2024/07/02,高雄市,三民區,鼎強里,6400500-003,120.324974301843,22.6716094229418,0.000,0,0.000,0,0.000,0,0.000,0,0.0000,0.00
2024/07/02,高雄市,三民區,寶興里,6400500-019,120.328950647764,22.6439889388348,4.000,1,4.000,2,13.333,4,6.000,2,0.0000,4.00
2024/07/02,高雄市,鳳山區,五福里,6401200-043,120.326258579286,22.5902779810772,9.433,2,7.547,3,31.250,7,79.245,4,0.0000,9.43
2024/07/02,高雄市,林園區,文賢里,6401300-021,120.394041645629,22.4988816869157,13.461,3,9.615,3,30.434,7,230.769,5,0.0000,13.46
2024/07/02,高雄市,左營區,屏山里,6400300-011,120.300953865726,22.6925214721205,2.000,1,2.000,1,9.090,3,4.000,2,0.0000,2.00
2024/07/02,高雄市,楠梓區,福昌里,6400400-021,120.284938062067,22.7134289926465,0.000,0,0.000,0,0.000,0,0.000,0,0.0000,0.00
2024/07/03,高雄市,楠梓區,玉屏里,6400400-010,120.314892076767,22.7153875157098,0.000,0,0.000,0,0.000,0,0.000,0,0.0000,0.00
2024/07/03,高雄市,三民區,灣利里,6400500-036,120.324268466316,22.6527245026905,4.000,1,4.000,2,18.181,5,60.000,4,0.0000,4.00
2024/07/03,高雄市,三民區,安吉里,6400500-044,120.315980893027,22.6429012053707,0.000,0,0.000,0,0.000,0,0.000,0,0.0000,0.00
2024/07/03,高雄市,林園區,文賢里,6401300-021,120.394041645629,22.4988816869157,16.393,3,14.754,3,31.250,7,83.606,4,0.0000,16.39
2024/07/03,高雄市,鳳山區,文山里,6401200-048,120.359541214015,22.6421832358072,0.000,0,0.000,0,0.000,0,0.000,0,0.0000,0.00
2024/07/03,高雄市,三民區,鼎中里,6400500-006,120.320587152781,22.6636070175903,2.000,1,2.000,1,5.882,3,4.000,2,0.0000,2.00
2024/07/03,高雄市,三民區,本元里,6400500-012,120.334434087446,22.6525432528511,0.000,0,0.000,0,0.000,0,0.000,0,0.0000,0.00
2024/07/03,高雄市,三民區,寶興里,6400500-019,120.328950647764,22.6439889388348,4.000,1,4.000,2,50.000,9,28.000,3,0.0000,4.00
2024/07/03,高雄市,前鎮區,瑞南里,6400900-047,120.324202027174,22.5994662301704,0.000,0,0.000,0,0.000,0,0.000,0,0.0000,0.00
2024/07/03,高雄市,三民區,鳳南里,6400500-077,120.292402338236,22.6355979409433,2.000,1,2.000,1,9.090,3,100.000,4,0.0000,2.00
2024/07/03,高雄市,前鎮區,瑞昌里,6400900-061,120.333794701611,22.6071477015255,1.000,1,1.000,1,4.761,2,10.000,2,0.0000,1.00
2024/07/03,高雄市,三民區,德東里,6400500-056,120.298460625536,22.6436534340549,0.000,0,0.000,0,0.000,0,0.000,0,0.0000,0.00
2024/07/03,高雄市,鳳山區,新泰里,6401200-068,120.344484745715,22.6109994979764,0.000,0,0.000,0,0.000,0,0.000,0,0.0000,0.00
2024/07/03,高雄市,鳳山區,新甲里,6401200-025,120.343096832934,22.6075722637709,0.000,0,0.000,0,0.000,0,0.000,0,0.0000,0.00
2024/07/03,高雄市,鳳山區,保安里,6401200-078,120.348561188549,22.5954298103048,0.000,0,0.000,0,0.000,0,0.000,0,0.0000,0.00
2024/07/03,高雄市,三民區,安宜里,6400500-060,120.296919111988,22.6499656887844,0.000,0,0.000,0,0.000,0,0.000,0,0.0000,0.00
2024/07/03,高雄市,三民區,達明里,6400500-049,120.305274145587,22.6445640862904,2.000,1,2.000,1,20.000,5,6.000,2,0.0000,2.00
2024/07/03,高雄市,三民區,港東里,6400500-068,120.305497595642,22.6370679627055,4.000,1,4.000,2,15.384,5,20.000,3,0.0000,4.00
2024/07/03,高雄市,三民區,本館里,6400500-008,120.330896813772,22.65605117948,8.000,2,6.000,2,33.333,8,62.000,4,0.0000,8.00
2024/07/03,高雄市,三民區,本安里,6400500-013,120.338028840921,22.6490595822713,0.000,0,0.000,0,0.000,0,0.000,0,0.0000,0.00
2024/07/03,高雄市,鼓山區,正德里,6400200-011,120.269435481657,22.6490200829927,4.000,1,4.000,2,16.666,5,14.000,3,0.0000,4.00
2024/07/03,高雄市,三民區,鼎力里,6400500-004,120.319751976325,22.6694642907699,0.000,0,0.000,0,0.000,0,0.000,0,0.0000,0.00
2024/07/03,高雄市,三民區,鼎盛里,6400500-002,120.324351618207,22.6754605292645,2.000,1,2.000,1,5.555,3,2.000,1,0.0000,2.00
2024/07/03,高雄市,左營區,進學里,6400300-001,120.295109310707,22.6919596929904,0.000,0,0.000,0,0.000,0,0.000,0,0.0000,0.00
2024/07/04,高雄市,鼓山區,桃源里,6400200-038,120.260170522075,22.6477143761691,6.000,2,6.000,2,25.000,6,32.000,4,0.0000,6.00
2024/07/04,高雄市,楠梓區,稔田里,6400400-012,120.323430611753,22.7142897349531,0.000,0,0.000,0,0.000,0,0.000,0,0.0000,0.00
2024/07/04,高雄市,三民區,鼎泰里,6400500-007,120.315713644991,22.6635537281643,1.923,1,1.923,1,6.666,3,1.923,1,0.0000,1.92
2024/07/04,高雄市,前鎮區,瑞興里,6400900-057,120.330449910669,22.6079736076647,4.000,1,4.000,2,8.333,3,20.000,3,0.0000,4.00
2024/07/04,高雄市,鳳山區,過埤里,6401200-040,120.363015132598,22.5984603438942,2.000,1,2.000,1,6.666,3,4.000,2,0.0000,2.00
2024/07/04,高雄市,左營區,新中里,6400300-041,120.309405770329,22.6700290376611,2.000,1,2.000,1,4.761,2,6.000,2,0.0000,2.00
2024/07/05,高雄市,左營區,新上里,6400300-040,120.308224914317,22.6621251399324,2.000,1,2.000,1,7.142,3,12.000,3,0.0000,2.00
2024/07/05,高雄市,三民區,本武里,6400500-011,120.332045986979,22.6510113593216,2.000,1,2.000,1,5.263,2,2.000,1,0.0000,2.00
2024/07/05,高雄市,前鎮區,瑞崗里,6400900-056,120.330066107481,22.606107646196,2.000,1,2.000,1,10.000,4,20.000,3,0.0000,2.00
2024/07/05,高雄市,鳳山區,東門里,6401200-030,120.372248584003,22.6232925760191,2.000,1,2.000,1,5.263,2,30.000,3,0.0000,2.00
2024/07/05,高雄市,三民區,本文里,6400500-010,120.325746148259,22.6534530641493,2.000,1,2.000,1,6.666,3,6.000,2,0.0000,2.00
2024/07/05,高雄市,楠梓區,金田里,6400400-011,120.317053851054,22.7232234112516,0.000,0,0.000,0,0.000,0,0.000,0,0.0000,0.00
2024/07/05,高雄市,楠梓區,翠屏里,6400400-014,120.303801786057,22.727704974475,0.000,0,0.000,0,0.000,0,0.000,0,0.0000,0.00
2024/07/05,高雄市,鼓山區,光化里,6400200-025,120.279226006527,22.6325520373303,0.000,0,0.000,0,0.000,0,0.000,0,0.0000,0.00
2024/07/05,高雄市,鳳山區,南成里,6401200-055,120.342891135404,22.5894758266154,0.000,0,0.000,0,0.000,0,0.000,0,0.0000,0.00
2024/07/05,高雄市,鳳山區,富榮里,6401200-074,120.336852654158,22.5964894498481,0.000,0,0.000,0,0.000,0,0.000,0,0.0000,0.00
2024/07/08,高雄市,鼓山區,哨船頭里,6400200-037,120.268209377984,22.6205657353184,4.000,1,4.000,2,15.384,5,16.000,3,0.0000,4.00
2024/07/08,高雄市,楠梓區,錦屏里,6400400-009,120.31180873815,22.7167725765024,0.000,0,0.000,0,0.000,0,0.000,0,0.0000,0.00
2024/07/08,高雄市,新興區,光耀里,6400600-015,120.311656229669,22.629293418053,0.000,0,0.000,0,0.000,0,0.000,0,0.0000,0.00
2024/07/08,高雄市,左營區,廟北里,6400300-007,120.295305997822,22.6875294683571,2.000,1,2.000,1,12.500,4,2.000,1,0.0000,2.00
2024/07/08,高雄市,旗津區,中華里,6401000-006,120.268398572929,22.6040983179237,0.000,0,0.000,0,0.000,0,0.000,0,0.0000,0.00
2024/07/08,高雄市,梓官區,赤崁里,6402900-006,120.249356146483,22.745857744401,26.363,4,24.545,4,49.152,9,199.090,5,0.0000,26.36
2024/07/08,高雄市,前鎮區,瑞西里,6400900-055,120.326637716724,22.6065774625947,0.000,0,0.000,0,0.000,0,0.000,0,0.0000,0.00
2024/07/08,高雄市,前鎮區,瑞崗里,6400900-056,120.330066107481,22.606107646196,0.000,0,0.000,0,0.000,0,0.000,0,0.0000,0.00
2024/07/08,高雄市,前鎮區,瑞隆里,6400900-053,120.334694524708,22.6046310860089,4.000,1,4.000,2,9.523,4,30.000,3,0.0000,4.00
2024/07/08,高雄市,大寮區,中庄里,6401400-009,120.401004791408,22.6339973310407,4.000,1,4.000,2,15.384,5,60.000,4,0.0000,4.00
2024/07/08,高雄市,三民區,正興里,6400500-038,120.318926456279,22.6463207067984,2.000,1,2.000,1,7.692,3,4.000,2,0.0000,2.00
2024/07/09,高雄市,三民區,正興里,6400500-038,120.318926456279,22.6463207067984,2.000,1,2.000,1,6.250,3,4.000,2,0.0000,2.00
2024/07/09,高雄市,左營區,聖后里,6400300-022,120.291871195689,22.6848737205448,2.000,1,2.000,1,16.666,5,2.000,1,0.0000,2.00
2024/07/09,高雄市,林園區,文賢里,6401300-021,120.394041645629,22.4988816869157,2.000,1,2.000,1,5.882,3,6.000,2,0.0000,2.00
2024/07/09,高雄市,左營區,福山里,6400300-044,120.31688893937,22.6853960803094,2.000,1,2.000,1,4.347,2,6.000,2,0.0000,2.00
2024/07/09,高雄市,前鎮區,瑞西里,6400900-055,120.326637716724,22.6065774625947,4.000,1,4.000,2,11.111,4,44.000,4,0.0000,4.00
2024/07/09,高雄市,前鎮區,瑞北里,6400900-054,120.327110653739,22.6092601504009,0.000,0,0.000,0,0.000,0,0.000,0,0.0000,0.00
2024/07/09,高雄市,前鎮區,瑞北里,6400900-054,120.327110653739,22.6092601504009,2.000,1,2.000,1,6.250,3,4.000,2,0.0000,2.00
2024/07/09,高雄市,梓官區,赤崁里,6402900-006,120.249356146483,22.745857744401,15.094,3,13.207,3,36.363,8,241.509,5,0.0000,15.09
2024/07/09,高雄市,仁武區,八卦里,6401700-009,120.336912597055,22.6852855841335,2.000,1,2.000,1,5.000,2,2.000,1,0.0000,2.00
2024/07/09,高雄市,旗津區,中華里,6401000-006,120.268398572929,22.6040983179237,0.000,0,0.000,0,0.000,0,0.000,0,0.0000,0.00
2024/07/09,高雄市,旗津區,中華里,6401000-006,120.268398572929,22.6040983179237,0.000,0,0.000,0,0.000,0,0.000,0,0.0000,0.00
2024/07/09,高雄市,楠梓區,泰昌里,6400400-023,120.285905183896,22.7142503038407,0.000,0,0.000,0,0.000,0,0.000,0,0.0000,0.00
2024/07/09,高雄市,三民區,正順里,6400500-039,120.323288764644,22.6481602031403,2.000,1,2.000,1,6.666,3,6.000,2,0.0000,2.00
2024/07/09,高雄市,三民區,安康里,6400500-042,120.318048754824,22.6392415578089,2.000,1,2.000,1,5.263,2,2.000,1,0.0000,2.00
2024/07/09,高雄市,鼓山區,忠正里,6400200-008,120.276929417969,22.6549457939232,0.000,0,0.000,0,0.000,0,0.000,0,0.0000,0.00
2024/07/09,高雄市,楠梓區,和昌里,6400400-027,120.294613167624,22.7084680672459,0.000,0,0.000,0,0.000,0,0.000,0,0.0000,0.00
2024/07/09,高雄市,楠梓區,東寧里,6400400-002,120.329525796606,22.7332760887877,0.000,0,0.000,0,0.000,0,0.000,0,0.0000,0.00
2024/07/09,高雄市,鳳山區,中崙里,6401200-069,120.34869085769,22.6036109944727,0.000,0,0.000,0,0.000,0,0.000,0,0.0000,0.00
2024/07/10,高雄市,鳳山區,正義里,6401200-027,120.34031583266,22.6028596555928,0.000,0,0.000,0,0.000,0,0.000,0,0.0000,0.00
2024/07/10,高雄市,鳳山區,龍成里,6401200-073,120.328455658923,22.5983640464793,0.000,0,0.000,0,0.000,0,0.000,0,0.0000,0.00
2024/07/10,高雄市,鳳山區,鎮北里,6401200-009,120.371069257909,22.6414368421992,0.000,0,0.000,0,0.000,0,0.000,0,0.0000,0.00
2024/07/10,高雄市,三民區,鼎金里,6400500-001,120.331152673214,22.6669546360114,4.000,1,2.000,1,11.111,4,22.000,3,0.0000,4.00
2024/07/10,高雄市,三民區,鼎西里,6400500-005,120.324835266911,22.6626096574435,2.000,1,2.000,1,6.666,3,40.000,4,0.0000,2.00
2024/07/10,高雄市,三民區,寶獅里,6400500-016,120.334456732125,22.636761074757,2.000,1,2.000,1,2.127,1,8.000,2,0.0000,2.00
2024/07/10,高雄市,左營區,聖西里,6400300-023,120.291795003856,22.6832908929295,0.000,0,0.000,0,0.000,0,0.000,0,0.0000,0.00
2024/07/10,高雄市,前鎮區,瑞平里,6400900-052,120.331318109675,22.6021860501627,0.000,0,0.000,0,0.000,0,0.000,0,0.0000,0.00
2024/07/10,高雄市,新興區,玉衡里,6400600-012,120.302801314494,22.625407414525,0.000,0,0.000,0,0.000,0,0.000,0,0.0000,0.00
2024/07/10,高雄市,鼓山區,樹德里,6400200-022,120.279983232899,22.6412753730468,2.000,1,2.000,1,4.545,2,2.000,1,0.0000,2.00
2024/07/10,高雄市,前鎮區,瑞隆里,6400900-053,120.334694524708,22.6046310860089,2.666,1,1.333,1,9.302,3,18.666,3,0.0000,2.66
2024/07/10,高雄市,旗津區,復興里,6401000-005,120.272292334142,22.601454528497,0.000,0,0.000,0,0.000,0,0.000,0,0.0000,0.00
2024/07/10,高雄市,旗津區,復興里,6401000-005,120.272292334142,22.601454528497,0.000,0,0.000,0,0.000,0,0.000,0,0.0000,0.00
2024/07/10,高雄市,三民區,本上里,6400500-014,120.34026716919,22.6455013713115,4.000,1,4.000,2,11.764,4,20.000,3,0.0000,4.00
2024/07/10,高雄市,三民區,灣興里,6400500-040,120.312428376621,22.653409610273,2.000,1,2.000,1,7.692,3,4.000,2,0.0000,2.00
2024/07/11,高雄市,三民區,安寧里,6400500-043,120.315252287746,22.6395505073359,0.000,0,0.000,0,0.000,0,0.000,0,0.0000,0.00
2024/07/11,高雄市,三民區,寶安里,6400500-027,120.328894870274,22.6403596775204,6.000,2,6.000,2,13.043,4,28.000,3,0.0000,6.00
2024/07/11,高雄市,三民區,寶安里,6400500-027,120.328894870274,22.6403596775204,6.000,2,6.000,2,9.090,3,14.000,3,0.0000,6.00
2024/07/11,高雄市,三民區,寶民里,6400500-023,120.340890727406,22.6356501855158,0.000,0,0.000,0,0.000,0,0.000,0,0.0000,0.00
2024/07/11,高雄市,旗津區,復興里,6401000-005,120.272292334142,22.601454528497,0.000,0,0.000,0,0.000,0,0.000,0,0.0000,0.00
2024/07/11,高雄市,旗津區,復興里,6401000-005,120.272292334142,22.601454528497,0.000,0,0.000,0,0.000,0,0.000,0,0.0000,0.00
2024/07/11,高雄市,前鎮區,瑞文里,6400900-059,120.330674327058,22.6100914115114,2.000,1,2.000,1,12.500,4,10.000,2,0.0000,2.00
2024/07/11,高雄市,楠梓區,裕昌里,6400400-031,120.288690004616,22.7181137144403,0.000,0,0.000,0,0.000,0,0.000,0,0.0000,0.00
2024/07/11,高雄市,鼓山區,龍子里,6400200-015,120.298611957205,22.6561209147425,21.126,4,14.084,3,25.423,6,153.521,5,0.0000,21.12
2024/07/11,高雄市,鼓山區,雄峰里,6400200-002,120.284714267641,22.6688155905084,2.000,1,2.000,1,5.882,3,4.000,2,0.0000,2.00
2024/07/11,高雄市,鳳山區,福興里,6401200-029,120.327418777294,22.5874484822116,0.000,0,0.000,0,0.000,0,0.000,0,0.0000,0.00
2024/07/11,高雄市,鳳山區,武松里,6401200-058,120.365593083589,22.6368028852987,0.000,0,0.000,0,0.000,0,0.000,0,0.0000,0.00
2024/07/11,高雄市,新興區,振華里,6400600-004,120.303869675938,22.6214090473557,0.000,0,0.000,0,0.000,0,0.000,0,0.0000,0.00
2024/07/11,高雄市,三民區,安發里,6400500-045,120.321273318774,22.6408244010109,4.000,1,4.000,2,8.695,3,6.000,2,0.0000,4.00
2024/07/11,高雄市,左營區,中北里,6400300-004,120.293182025799,22.6860964739459,2.000,1,2.000,1,7.692,3,14.000,3,0.0000,2.00
2024/07/11,高雄市,三民區,寶華里,6400500-021,120.34255250166,22.6377793687028,2.000,1,2.000,1,6.666,3,2.000,1,0.0000,2.00
2024/07/12,高雄市,前鎮區,瑞平里,6400900-052,120.331318109675,22.6021860501627,0.000,0,0.000,0,0.000,0,0.000,0,0.0000,0.00
2024/07/12,高雄市,鳳山區,忠誠里,6401200-024,120.36735399154,22.6441794291024,0.000,0,0.000,0,0.000,0,0.000,0,0.0000,0.00
2024/07/12,高雄市,前鎮區,瑞和里,6400900-051,120.330243012112,22.6035514929845,2.000,1,2.000,1,5.882,3,10.000,2,0.0000,2.00
2024/07/12,高雄市,前鎮區,瑞和里,6400900-051,120.330243012112,22.6035514929845,0.000,0,0.000,0,0.000,0,0.000,0,0.0000,0.00
2024/07/12,高雄市,前鎮區,瑞東里,6400900-050,120.329023197808,22.6045527785302,0.000,0,0.000,0,0.000,0,0.000,0,0.0000,0.00
2024/07/12,高雄市,旗津區,實踐里,6401000-007,120.276014568114,22.60637736506,0.000,0,0.000,0,0.000,0,0.000,0,0.0000,0.00
2024/07/12,高雄市,旗津區,實踐里,6401000-007,120.276014568114,22.60637736506,0.000,0,0.000,0,0.000,0,0.000,0,0.0000,0.00
2024/07/12,高雄市,三民區,寶中里,6400500-020,120.324894809636,22.6431687439934,0.000,0,0.000,0,0.000,0,0.000,0,0.0000,0.00
2024/07/12,高雄市,三民區,寶興里,6400500-019,120.328950647764,22.6439889388348,0.000,0,0.000,0,0.000,0,0.000,0,0.0000,0.00
2024/07/12,高雄市,鳳山區,五福里,6401200-043,120.326258579286,22.5902779810772,0.000,0,0.000,0,0.000,0,0.000,0,0.0000,0.00
2024/07/12,高雄市,三民區,寶安里,6400500-027,120.328894870274,22.6403596775204,20.833,4,16.666,3,32.467,8,126.666,5,0.0583,20.83
2024/07/12,高雄市,三民區,寶盛里,6400500-026,120.328340892258,22.6378378872573,6.000,2,6.000,2,6.000,3,22.000,3,0.0000,6.00
2024/07/12,高雄市,左營區,聖南里,6400300-024,120.290138676364,22.6841502667801,0.000,0,0.000,0,0.000,0,0.000,0,0.0000,0.00
2024/07/12,高雄市,三民區,灣興里,6400500-040,120.312428376621,22.653409610273,15.441,3,13.235,3,13.207,4,141.176,5,0.0000,15.44
2024/07/15,高雄市,楠梓區,瑞屏里,6400400-013,120.307173233181,22.7224595216169,2.000,1,2.000,1,5.882,3,4.000,2,0.0000,2.00
2024/07/15,高雄市,三民區,寶安里,6400500-027,120.328894870274,22.6403596775204,2.857,1,2.285,1,7.692,3,16.000,3,0.0000,2.85
2024/07/15,高雄市,三民區,寶安里,6400500-027,120.328894870274,22.6403596775204,3.472,1,2.777,1,7.692,3,19.444,3,0.0000,3.47
2024/07/15,高雄市,大寮區,大寮里,6401400-003,120.424909153009,22.5890308124702,8.000,2,8.000,3,19.047,5,24.000,3,0.0000,8.00
2024/07/15,高雄市,旗津區,實踐里,6401000-007,120.276014568114,22.60637736506,0.000,0,0.000,0,0.000,0,0.000,0,0.0000,0.00
2024/07/15,高雄市,小港區,山東里,6401100-018,120.34942631103,22.5728271947674,6.000,2,6.000,2,30.000,7,10.000,2,0.0000,6.00
2024/07/15,高雄市,小港區,松金里,6401100-024,120.368303087999,22.5716314883027,6.000,2,6.000,2,23.076,6,40.000,4,0.0000,6.00
2024/07/15,高雄市,前鎮區,瑞祥里,6400900-049,120.327406245605,22.601611437538,0.000,0,0.000,0,0.000,0,0.000,0,0.0000,0.00
2024/07/15,高雄市,前鎮區,瑞東里,6400900-050,120.329023197808,22.6045527785302,0.000,0,0.000,0,0.000,0,0.000,0,0.0000,0.00
2024/07/15,高雄市,鳳山區,北門里,6401200-053,120.368218009381,22.6341638666377,0.000,0,0.000,0,0.000,0,0.000,0,0.0000,0.00
2024/07/15,高雄市,鳳山區,北門里,6401200-053,120.368218009381,22.6341638666377,0.000,0,0.000,0,0.000,0,0.000,0,0.0000,0.00
2024/07/15,高雄市,梓官區,赤崁里,6402900-006,120.249356146483,22.745857744401,4.000,1,4.000,2,10.526,4,16.000,3,0.0000,4.00
2024/07/15,高雄市,仁武區,八卦里,6401700-009,120.336912597055,22.6852855841335,2.000,1,2.000,1,25.000,6,4.000,2,0.0000,2.00
2024/07/15,高雄市,鼓山區,明誠里,6400200-017,120.297928763669,22.6634651243903,0.000,0,0.000,0,0.000,0,0.000,0,0.0000,0.00
2024/07/15,高雄市,鳳山區,武松里,6401200-058,120.365593083589,22.6368028852987,0.000,0,0.000,0,0.000,0,0.000,0,0.0000,0.00
2024/07/15,高雄市,新興區,仁聲里,6400600-007,120.307601021533,22.6292316541564,0.000,0,0.000,0,0.000,0,0.000,0,0.0000,0.00
2024/07/15,高雄市,前鎮區,明孝里,6400900-002,120.317849157573,22.5703852900333,2.000,1,2.000,1,9.090,3,12.000,3,0.0000,2.00
2024/07/15,高雄市,左營區,果峰里,6400300-038,120.288139776658,22.6691707134802,2.000,1,2.000,1,9.090,3,10.000,2,0.0000,2.00
2024/07/15,高雄市,仁武區,五和里,6401700-013,120.330816272544,22.6953231352959,2.000,1,2.000,1,12.500,4,10.000,2,0.0000,2.00
